ID,City,Latitude,Longitude,Country,State
5881639,100 Mile House,51.64982,-121.28594,CA,2
5881791,Abbotsford,49.05798,-122.25257,CA,2
5882142,Acton Vale,45.65007,-72.56582,CA,10
5882428,Adstock,46.05007,-71.08235,CA,10
5882534,Agassiz,49.23298,-121.76926,CA,2
5882600,Agincourt North,43.80418,-79.27528,CA,8
5882799,Airdrie,51.30011,-114.03528,CA,1
5882873,Ajax,43.85012,-79.03288,CA,8
5882953,Aklavik,68.21913,-135.01071,CA,13
5883074,Albanel,48.88324,-72.44867,CA,10
5883166,Alberton,46.81685,-64.06542,CA,9
5883345,Alderwood,43.60348,-79.54604,CA,8
5883353,Aldouane,46.63343,-65.06544,CA,4
5884051,Alliston,44.15011,-79.86635,CA,8
5884083,Alma,48.55009,-71.6491,CA,10
5884260,Altona,49.10469,-97.55961,CA,3
5884467,Amherst,45.83345,-64.19874,CA,7
5884472,Amherstburg,42.10009,-83.09985,CA,8
5884497,Amigo Beach,44.6919,-79.39317,CA,8
5884588,Amos,48.56688,-78.11624,CA,10
5885150,Ange-Gardien,45.35008,-72.93244,CA,10
5885280,Angus,44.31681,-79.88295,CA,8
5885383,Anmore,49.31637,-122.85263,CA,2
5886139,Anten Mills,44.4815,-79.81722,CA,8
5886182,Antigonish,45.61685,-61.99858,CA,7
5886586,Arbutus Ridge,49.24966,-123.16934,CA,2
5886735,Arctic Bay,73.03752,-85.15057,CA,14
5887048,Armstrong,50.44979,-119.20235,CA,2
5887214,Arnprior,45.43341,-76.34939,CA,8
5887470,Asbestos,45.76678,-71.9324,CA,10
5887531,Ashcroft,50.72372,-121.28207,CA,2
5887798,Assiniboia,49.63336,-105.98446,CA,11
5887916,Athabasca,54.71687,-113.28537,CA,1
5887942,Athens,44.63341,-75.94936,CA,8
5888001,Atikokan,48.75667,-91.62409,CA,8
5888118,Attawapiskat,52.92774,-82.41669,CA,8
5888377,Aurora,44.00011,-79.46632,CA,8
5888716,Aylmer,42.76679,-80.98302,CA,8
5888759,Azilda,46.55008,-81.09975,CA,8
5889745,Baie-Comeau,49.21679,-68.14894,CA,10
5890542,Baie-D'Urfé,45.41397,-73.91586,CA,10
5892205,Ballantrae,44.03342,-79.2996,CA,8
5892510,Bancroft,45.05752,-77.85702,CA,8
5892532,Banff,51.17622,-115.56982,CA,1
5894033,Barraute,48.43349,-77.63279,CA,10
5894164,Barrhead,54.13345,-114.40211,CA,1
5894171,Barrie,44.40011,-79.66634,CA,8
5894188,Barrière,51.18308,-120.1192,CA,2
5894642,Bassano,50.78998,-112.46805,CA,1
5894924,Bath,44.18342,-76.78273,CA,8
5895424,Bay Roberts,47.59989,-53.26478,CA,5
5895446,Bay St. George South,48.22781,-58.84162,CA,5
5895482,Bayview Village,43.77639,-79.38028,CA,8
5895650,Beaconsfield,45.43341,-73.86586,CA,10
5896495,Beauharnois,45.31341,-73.8725,CA,10
5896522,Beaumont,53.35013,-113.41871,CA,1
5896549,Beausejour,50.0622,-96.51669,CA,3
5896969,Beaverlodge,55.21664,-119.43605,CA,1
5897209,Bécancour,46.34106,-72.43224,CA,10
5897323,Bedford,45.11678,-72.98244,CA,10
5897681,Belfast,46.08341,-62.88197,CA,9
5897884,Belleville,44.16682,-77.38277,CA,8
5898070,Bells Corners,45.31588,-75.83012,CA,8
5898124,Belmont,42.88339,-81.08303,CA,8
5898138,Beloeil,45.56839,-73.20568,CA,10
5898265,Bendale,43.76681,-79.25326,CA,8
5899017,Berthierville,46.08336,-73.18245,CA,10
5899061,Berwick,45.05015,-64.73208,CA,7
5899982,Biggar,52.05978,-107.98844,CA,11
5901272,Binbrook,43.12135,-79.81104,CA,8
5902458,Black Diamond,50.68771,-114.23241,CA,1
5902599,Blackfalds,52.38342,-113.7853,CA,1
5903356,Blackstock,44.10012,-78.81626,CA,8
5903510,Blainville,45.66678,-73.88249,CA,10
5903593,Blaketown,47.4832,-53.5648,CA,5
5903997,Bloomfield,48.3832,-53.8981,CA,5
5904501,Bluewater,43.46679,-81.59977,CA,8
5905132,Boisbriand,45.61678,-73.83249,CA,10
5905152,Bois-des-Filion,45.66678,-73.74918,CA,10
5905191,Boissevain,49.23062,-100.05586,CA,3
5905348,Bon Accord,53.83345,-113.41872,CA,1
5905393,Bonavista,48.64989,-53.11474,CA,5
5905616,Bonnyville,54.26684,-110.73505,CA,1
5906129,Bothwell,42.63339,-81.86648,CA,8
5906229,Botwood,49.14994,-55.34819,CA,5
5906267,Boucherville,45.59104,-73.43605,CA,10
5906281,Bouctouche,46.46844,-64.73905,CA,4
5906575,Bourget,45.43475,-75.16028,CA,8
5906634,Boutiliers Point,44.66569,-63.95055,CA,7
5906690,Bowen Island,49.3847,-123.33622,CA,2
5906757,Bow Island,49.86676,-111.36843,CA,1
5907092,Bracebridge,45.03341,-79.31633,CA,8
5907364,Brampton,43.68341,-79.76633,CA,8
5907896,Brandon,49.84692,-99.95306,CA,3
5907983,Brant,43.1334,-80.34967,CA,8
5907990,Brantford,43.1334,-80.26636,CA,8
5908723,Bridgewater,44.37856,-64.51882,CA,7
5909294,Brockville,44.59132,-75.68705,CA,8
5909403,Bromont,45.31678,-72.64912,CA,10
5909514,Brooks,50.58341,-111.88509,CA,1
5909629,Brossard,45.45008,-73.46583,CA,10
5909969,Brownsburg-Chatham,45.68342,-74.4159,CA,10
5910322,Brussels,43.74316,-81.24998,CA,8
5911433,Burford,43.10292,-80.42869,CA,8
5911440,Burgeo,47.61668,-57.61516,CA,5
5911592,Burlington,43.38621,-79.83713,CA,8
5911606,Burnaby,49.26636,-122.95263,CA,2
5911745,Burns Lake,54.22972,-125.76084,CA,2
5913035,Cache Bay,46.36679,-79.98297,CA,8
5913049,Cache Creek,50.81011,-121.3246,CA,2
5913174,Caesarea,44.15012,-78.83286,CA,8
5913490,Calgary,51.05011,-114.08529,CA,1
5913601,Calmar,53.26683,-113.81874,CA,1
5913628,Calumet,45.65148,-74.63536,CA,10
5913695,Cambridge,43.3601,-80.31269,CA,8
5913934,Camlachie,43.03596,-82.1616,CA,8
5914132,Campbell River,50.01634,-125.24459,CA,2
5914273,Camperville,51.98832,-100.14365,CA,3
5914653,Camrose,53.01684,-112.83525,CA,1
5914826,Candiac,45.38338,-73.51587,CA,10
5914894,Canmore,51.08335,-115.35206,CA,1
5915098,Canora,51.63328,-102.43425,CA,11
5915148,Cantley,45.5668,-75.78265,CA,10
5915359,Cap-Chat,49.09736,-66.68514,CA,10
5916567,Capreol,46.70626,-80.92109,CA,8
5916706,Carberry,49.86893,-99.36021,CA,3
5916722,Carbonear,47.73919,-53.2272,CA,5
5916821,Cardston,49.19998,-113.3019,CA,1
5917117,Carignan,45.45008,-73.29916,CA,10
5917158,Carleton Place,45.13341,-76.14938,CA,8
5917262,Carlyle,49.63334,-102.26765,CA,11
5917275,Carman,49.4992,-98.00156,CA,3
5917349,Carnduff,49.17379,-101.79633,CA,11
5917430,Caronport,50.45006,-105.81787,CA,11
5917605,Carrot River,53.28337,-103.58423,CA,11
5917688,Carstairs,51.56681,-114.102,CA,1
5918021,Casselman,45.3168,-75.0826,CA,8
5918040,Cassidy,49.04963,-123.886,CA,2
5918118,Castlegar,49.32317,-117.65831,CA,2
5918243,Catalina,48.51659,-53.08135,CA,5
5918767,Cedar,49.11633,-123.8527,CA,2
5919566,Chambly,45.45008,-73.28246,CA,10
5919569,Chambord,48.43339,-72.06583,CA,10
5919815,Channel-Port aux Basques,47.57286,-59.13808,CA,5
5919850,Chapais,49.78344,-74.84919,CA,10
5920089,Charlemagne,45.71678,-73.48247,CA,10
5920288,Charlottetown,46.23459,-63.1256,CA,9
5920381,Chase,50.8165,-119.68571,CA,2
5920433,Châteauguay,45.38338,-73.74919,CA,10
5920457,Chatham,42.41224,-82.18494,CA,8
5920668,Chemainus,48.91633,-123.71937,CA,2
5920996,Chertsey,46.07109,-73.89095,CA,10
5921028,Chester,44.54225,-64.23891,CA,7
5921060,Chestermere,51.03341,-113.81867,CA,1
5921091,Chetwynd,55.69988,-121.63627,CA,2
5921147,Chibougamau,49.91684,-74.36586,CA,10
5921356,Chilliwack,49.16638,-121.95257,CA,2
5922281,Chute-aux-Outardes,49.11679,-68.39896,CA,10
5923101,Clarence-Rockland,45.5501,-75.29101,CA,8
5923119,Clarenville-Shoal Harbour,48.1805,-53.96982,CA,5
5923125,Claresholm,50.03332,-113.58524,CA,1
5923921,Cliffcrest,43.72192,-79.23091,CA,8
5924041,Clinton,51.08309,-121.58597,CA,2
5924351,Clyde River,70.47233,-68.58987,CA,14
5924417,Coaldale,49.7167,-112.61854,CA,1
5924428,Coalhurst,49.7464,-112.93246,CA,1
5924500,Coaticook,45.13339,-71.79907,CA,10
5924579,Cobourg,43.95977,-78.16515,CA,8
5924618,Cochrane,51.18341,-114.46871,CA,1
5925024,Cold Lake,54.46525,-110.18154,CA,1
5925975,Collingwood,44.4834,-80.21638,CA,8
5926268,Colwood,48.43293,-123.48591,CA,2
5926511,Conception Bay South,47.49989,-52.99806,CA,5
5926526,Concord,43.80011,-79.48291,CA,8
5926968,Constance Bay,45.50011,-76.08267,CA,8
5927024,Contrecoeur,45.85008,-73.23245,CA,10
5927234,Cookshire,45.41536,-71.62962,CA,10
5927235,Cookshire-Eaton,45.41675,-71.6324,CA,10
5927277,Cookstown,44.18341,-79.69964,CA,8
5927308,Coombs,49.29963,-124.41946,CA,2
5927690,Coquitlam,49.2846,-122.78217,CA,2
5927969,Corner Brook,48.95001,-57.95202,CA,5
5928063,Cornwall,46.22652,-63.21809,CA,9
5928065,Cornwall,45.01809,-74.72815,CA,8
5928202,Corunna,42.88338,-82.43313,CA,8
5928337,Coteau-du-Lac,45.30008,-74.18253,CA,10
5928488,Côte-Saint-Luc,45.46536,-73.66585,CA,10
5930890,Courtenay,49.68657,-124.9936,CA,2
5931074,Cowansville,45.20008,-72.74913,CA,10
5931082,Cow Bay,44.63141,-63.43218,CA,7
5931427,Crabtree,45.96677,-73.46586,CA,10
5931789,Cranberry Portage,54.58623,-101.37797,CA,3
5931800,Cranbrook,49.49991,-115.76879,CA,2
5932311,Creston,49.09987,-116.50211,CA,2
5933070,Crossfield,51.43341,-114.03528,CA,1
5933885,Cumberland,49.61634,-125.03613,CA,2
5934709,Dalmeny,52.34077,-106.7712,CA,11
5935042,Danville,45.78337,-72.0158,CA,10
5935277,Dartmouth,44.67134,-63.57719,CA,7
5935303,Dashwood,49.36633,-124.51947,CA,2
5935341,Dauphin,51.14941,-100.05023,CA,3
5935388,Daveluyville,46.20006,-72.13239,CA,10
5935486,Davidson,51.26676,-105.98449,CA,11
5935804,Dawson Creek,55.75984,-120.2403,CA,2
5937073,Deep River,46.10012,-77.49949,CA,8
5937252,Deer Lake,49.16671,-57.43163,CA,5
5937497,Delaware,42.91679,-81.41646,CA,8
5937577,Deloraine,49.19082,-100.49477,CA,3
5937612,Delson,45.36678,-73.54917,CA,10
5937615,Delta,49.14399,-122.9068,CA,2
5937819,Denman Island,49.53294,-124.8195,CA,2
5938187,Deseronto,44.20012,-77.04944,CA,8
5938513,Deux-Montagnes,45.53455,-73.90168,CA,10
5938801,Devon,53.36683,-113.73533,CA,1
5939210,Didsbury,51.66681,-114.13529,CA,1
5939219,Dieppe,46.07844,-64.68735,CA,4
5939236,Digby,44.62188,-65.7586,CA,7
5939663,Disraeli,45.90007,-71.34907,CA,10
5940934,Dolbeau-Mistassini,48.8786,-72.23142,CA,10
5940956,Dollard-Des Ormeaux,45.49452,-73.82419,CA,10
5941761,Dorchester,42.98339,-81.06643,CA,8
5941905,Dorset Park,43.75386,-79.28215,CA,8
5941925,Dorval,45.4473,-73.75335,CA,10
5942290,Dowling,46.59111,-81.33917,CA,8
5942547,Drayton Valley,53.21682,-114.98544,CA,1
5942845,Drummondville,45.88336,-72.48241,CA,10
5942913,Dryden,49.78334,-92.75032,CA,8
5943865,Duncan,48.78293,-123.70266,CA,2
5944071,Dunham,45.13338,-72.79913,CA,10
5944935,Ear Falls,50.63955,-93.23526,CA,8
5945016,East Angus,45.48338,-71.66577,CA,10
5945707,East Gwillimbury,44.10087,-79.43785,CA,8
5946209,East Wellington,49.17385,-124.01745,CA,2
5946768,Edmonton,53.55014,-113.46871,CA,1
5946820,Edson,53.58345,-116.43559,CA,1
5947708,Elkford,50.05007,-114.8854,CA,2
5947754,Elk Point,53.90017,-110.9017,CA,1
5947866,Elliot Lake,46.38336,-82.63315,CA,8
5947954,Ellison,49.93307,-119.36907,CA,2
5948094,Elmvale,44.5834,-79.86636,CA,8
5948587,Humbermede,43.7525,-79.54417,CA,8
5948770,Enderby,50.5498,-119.15234,CA,2
5948844,Englehart,47.82397,-79.87386,CA,8
5948870,English Corner,44.73345,-63.78201,CA,7
5949493,Espanola,46.25837,-81.76649,CA,8
5949531,Essex,42.17509,-82.82483,CA,8
5949563,Esterhazy,50.65001,-102.08426,CA,11
5949568,Estevan,49.13337,-102.98422,CA,11
5949601,Eston,51.1501,-108.75144,CA,11
5950269,Etobicoke West Mall,43.64639,-79.56985,CA,8
5951036,Fairview,56.06675,-118.38606,CA,1
5951224,Falher,55.73339,-117.20262,CA,1
5951233,Falkland,50.49979,-119.55239,CA,2
5951289,Fall River,44.81685,-63.6154,CA,7
5951644,Farnham,45.28338,-72.98244,CA,10
5952330,Ferme-Neuve,46.70011,-75.44929,CA,10
5952337,Fermont,52.79445,-67.08378,CA,10
5952370,Fernie,49.49996,-115.06871,CA,2
5954579,Flemingdon Park,43.71806,-79.33222,CA,8
5954718,Flin Flon,54.76703,-101.87433,CA,3
5955084,Foam Lake,51.65001,-103.53431,CA,11
5955777,Fort Albany,52.19998,-81.66664,CA,8
5955797,Fort-Coulonge,45.85011,-76.73272,CA,10
5955815,Fort Erie,42.90012,-78.93286,CA,8
5955826,Fort Frances,48.61667,-93.4003,CA,8
5955840,Fort Good Hope,66.25698,-128.6374,CA,13
5955887,Fort Liard,60.23947,-123.47371,CA,13
5955891,Fort Macleod,49.71671,-113.41857,CA,1
5955895,Fort McMurray,56.72676,-111.38103,CA,1
5955898,Fort McPherson,67.43863,-134.88543,CA,13
5955902,Fort Nelson,58.80533,-122.7002,CA,2
5955948,Fort Saskatchewan,53.69814,-113.21382,CA,1
5955954,Fort Smith,60.00439,-111.88871,CA,13
5955960,Fort St. John,56.24988,-120.85292,CA,2
5956869,Fox Creek,54.40007,-116.80238,CA,1
5957404,Franklin,45.03338,-73.91591,CA,10
5957776,Fredericton,45.94541,-66.66558,CA,4
5957946,French Creek,49.34123,-124.35541,CA,2
5958590,Fruitvale,49.11654,-117.55222,CA,2
5959271,Gambo,48.7832,-54.21482,CA,5
5959326,Gananoque,44.33342,-76.16607,CA,8
5959340,Gander Bay North,49.34992,-54.48141,CA,5
5959360,Ganges,48.85342,-123.50032,CA,2
5959805,Garson,50.0778,-96.7073,CA,3
5959878,Gaspé,48.83341,-64.48194,CA,10
5959974,Gatineau,45.47723,-75.70164,CA,10
5960842,Gibbons,53.83345,-113.33531,CA,1
5960971,Gibsons,49.39539,-123.50555,CA,2
5961417,Gimli,50.63362,-96.99066,CA,3
5961560,Gjoa Haven,68.62602,-95.87836,CA,14
5961564,Glace Bay,46.19695,-59.95698,CA,7
5961876,Glencoe,42.75009,-81.71648,CA,8
5962440,Godefroy,51.75012,-68.08213,CA,10
5962442,Goderich,43.74171,-81.71339,CA,8
5962582,Golden,51.29995,-116.9689,CA,2
5963013,Goodwood,44.03342,-79.19959,CA,8
5963821,Goulds,47.45532,-52.77552,CA,5
5964215,Granby,45.40008,-72.73243,CA,10
5964230,Grand Bank,47.09995,-55.76504,CA,5
5964304,Grande Cache,53.88335,-119.13585,CA,1
5964318,Grande-Digue,46.30014,-64.56546,CA,4
5964347,Grande Prairie,55.16667,-118.80271,CA,1
5964378,Grand Falls-Windsor,48.93324,-55.66492,CA,5
5964401,Grand Forks,49.03309,-118.4356,CA,2
5964410,Grand Haven,56.23333,-120.9,CA,2
5964700,Greater Sudbury,46.49,-80.99001,CA,8
5965462,Gravelbourg,49.88336,-106.55122,CA,11
5965546,Gravenhurst,44.91681,-79.36633,CA,8
5965812,Greater Napanee,44.25012,-76.94944,CA,8
5965944,Greenbank,44.15012,-79.01628,CA,8
5966580,Green's Harbour,47.63319,-53.49809,CA,5
5966622,Greenstone,49.73343,-87.16668,CA,8
5966689,Greenwood,44.97413,-64.93169,CA,7
5966821,Grenfell,50.41674,-102.93432,CA,11
5967157,Grimshaw,56.18339,-117.6027,CA,1
5967590,Grunthal,49.40668,-96.85873,CA,3
5967629,Guelph,43.54594,-80.25599,CA,8
5967690,Guildwood,43.75262,-79.19486,CA,8
5967988,Gull Lake,50.10007,-108.48471,CA,11
5969025,Haines Junction,60.75216,-137.51082,CA,12
5969782,Hamilton,43.25011,-79.84963,CA,8
5970014,Hampstead,45.48064,-73.66307,CA,10
5970018,Hampton,45.52876,-65.85354,CA,4
5970063,Hanceville,51.91922,-123.04458,CA,2
5970234,Hanna,51.63343,-111.90181,CA,1
5970301,Hanover,44.15009,-81.03303,CA,8
5970414,Hantsport,45.06685,-64.16544,CA,7
5970458,Happy Valley-Goose Bay,53.3038,-60.32576,CA,5
5970478,Harbour Breton,47.48325,-55.79833,CA,5
5970873,Hare Bay,48.8499,-54.01481,CA,5
5971448,Harriston,43.91199,-80.87199,CA,8
5972068,Haute-Aboujagane,46.14834,-64.39892,CA,4
5972291,Havre-Saint-Pierre,50.24342,-63.60264,CA,10
5972360,Hawkesbury,45.60009,-74.61595,CA,8
5972762,Hay River,60.81555,-115.79993,CA,13
5972961,Headingley,49.8753,-97.40896,CA,3
5973108,Hearst,49.68351,-83.66654,CA,8
5973741,Hemmingford,45.05008,-73.58248,CA,10
5973973,Henry Farm,43.76952,-79.3524,CA,8
5974949,Highland Creek,43.79068,-79.17555,CA,8
5975004,High Level,58.51688,-117.13605,CA,1
5975034,High Prairie,55.4334,-116.4858,CA,1
5975038,High River,50.58341,-113.86867,CA,1
5975182,Hillcrest Village,43.80486,-79.35442,CA,8
5975503,Hinton,53.40009,-117.58567,CA,1
5976783,Hope,49.38299,-121.44144,CA,2
5976999,Hornby Island,49.53448,-124.66923,CA,2
5977046,Hornepayne,49.21451,-84.77617,CA,8
5977783,Houston,54.39976,-126.67008,CA,2
5978126,Hudson,45.45008,-74.14922,CA,10
5978133,Hudson Bay,52.85003,-102.38425,CA,11
5978398,Humber Summit,43.7579,-79.57501,CA,8
5978404,Humboldt,52.20005,-105.1255,CA,11
5978683,Huntingdon,45.08339,-74.16593,CA,10
5978765,Huntsville,45.33341,-79.21632,CA,8
5978831,Huron East,43.61679,-81.29975,CA,8
5980472,Ile des Chênes,49.7106,-96.98893,CA,3
5982839,Indian Head,50.53336,-103.66775,CA,11
5983175,Ingersoll,43.03339,-80.88302,CA,8
5983433,Innisfil,44.30011,-79.64964,CA,8
5983607,Inuvik,68.36166,-133.72817,CA,13
5983626,Invermere,50.51666,-116.03538,CA,2
5983680,Ionview,43.73694,-79.27333,CA,8
5983720,Iqaluit,63.74697,-68.51727,CA,14
5984000,Iroquois Falls,48.76688,-80.68307,CA,8
5984019,Irricana,51.32372,-113.60475,CA,1
5985477,Jaffray,49.38324,-115.30204,CA,2
5985873,Jarvis,42.88559,-80.1122,CA,8
5985934,Jasper Park Lodge,52.88633,-118.05625,CA,1
5987650,Joliette,46.0164,-73.4236,CA,10
5989045,Kamloops,50.66648,-120.3192,CA,2
5989068,Kamsack,51.56668,-101.90093,CA,11
5989117,Kanata,45.3001,-75.91606,CA,8
5989403,Kapuskasing,49.41694,-82.43308,CA,8
5989931,Kazabazua,45.95011,-76.01606,CA,10
5990579,Kelowna,49.88307,-119.48568,CA,2
5990669,Kelvington,52.16669,-103.5343,CA,11
5990916,Kennedy Park,43.72267,-79.26052,CA,8
5991055,Kenora,49.76741,-94.48985,CA,8
5991080,Kensington,46.43343,-63.64871,CA,9
5991148,Kentville,45.0771,-64.49605,CA,7
5991284,Kerrobert,51.91682,-109.13479,CA,11
5991370,Keswick,44.25011,-79.46632,CA,8
5991374,Keswick Ridge,46.00011,-66.88218,CA,4
5991888,Killam,52.78344,-111.85175,CA,1
5991907,Killarney,49.18332,-99.66364,CA,3
5992059,Kimberley,49.67071,-115.9776,CA,2
5992144,Kincardine,44.18339,-81.63307,CA,8
5992154,Kindersley,51.46681,-109.16818,CA,11
5992180,King,43.96514,-79.59011,CA,8
5992424,Kingsey Falls,45.85007,-72.0658,CA,10
5992500,Kingston,44.22976,-76.48098,CA,8
5992724,Kipling,50.10003,-102.6343,CA,11
5992830,Kirkland,45.45008,-73.86586,CA,10
5992836,Kirkland Lake,48.14461,-80.03767,CA,8
5992996,Kitchener,43.42537,-80.5112,CA,8
5993072,Kitimat,54.05244,-128.65342,CA,2
5994339,Kugluktuk,67.82743,-115.09649,CA,14
5994763,Labelle,46.28339,-74.73255,CA,10
5994839,Labrador City,52.94626,-66.91137,CA,5
5994861,Labrieville,49.30009,-69.56294,CA,10
5994866,La Broquerie,49.51688,-96.50029,CA,3
5996666,Lac-Alouette,45.81698,-73.9592,CA,10
6002133,Lac-Brome,45.21678,-72.51581,CA,10
6005297,Lac-Connelly,45.89788,-73.9723,CA,10
6014443,Lac du Bonnet,50.2536,-96.06116,CA,3
6024829,Lachute,45.65008,-74.33253,CA,10
6028050,Lac La Biche,54.7669,-111.96861,CA,1
6028783,Lac-Lapierre,45.89837,-73.77308,CA,10
6032673,Lac-Mégantic,45.58338,-70.88234,CA,10
6035592,Lacolle,45.08338,-73.36585,CA,10
6035615,Lacombe,52.46681,-113.7353,CA,1
6035664,La Conception,46.15009,-74.69925,CA,10
6042689,Lac-Simon,46.15699,-74.74129,CA,10
6047817,Ladysmith,48.99016,-123.81699,CA,2
6048316,Lake Cowichan,48.82495,-124.05461,CA,2
6048347,Lake Echo,44.73345,-63.38198,CA,7
6048370,Lakefield,44.43342,-78.26623,CA,8
6049024,Lambton Shores,43.16678,-81.93309,CA,8
6049035,La Minerve,46.25009,-74.93257,CA,10
6049046,Lamont,53.76686,-112.80195,CA,1
6049255,Landmark,49.67169,-96.82232,CA,3
6049379,Langenburg,50.84999,-101.71763,CA,11
6049388,Langford,48.44963,-123.50261,CA,2
6049403,Langham,52.3668,-106.96793,CA,11
6049429,Langley,49.10107,-122.65883,CA,2
6049515,Lanigan,51.85006,-105.03443,CA,11
6049537,Lanoraie,45.96677,-73.21585,CA,10
6049634,Lantz,44.98345,-63.48199,CA,7
6049858,Lappe,48.5668,-89.35013,CA,8
6049863,La Prairie,45.41678,-73.49917,CA,10
6050066,La Ronge,55.10013,-105.28422,CA,11
6050194,La Sarre,48.80019,-79.19964,CA,10
6050216,L'Ascension-de-Notre-Seigneur,48.68339,-71.6658,CA,10
6050218,La Scie,49.94995,-55.59811,CA,5
6050263,L'Assomption,45.82318,-73.4294,CA,10
6050416,La Tuque,47.43337,-72.7824,CA,10
6050539,Laurentides,47.13336,-72.28239,CA,10
6050610,Laval,45.56995,-73.692,CA,10
6050650,Lavaltrie,45.88338,-73.28245,CA,10
6051122,Leamington,42.05009,-82.59981,CA,8
6051264,Lebel-sur-Quévillon,49.05018,-76.98273,CA,10
6051272,Leblanc,48.26683,-74.34914,CA,10
6051562,Leduc,53.26682,-113.55201,CA,1
6052583,L'Épiphanie,45.85008,-73.48246,CA,10
6052773,Les Cèdres,45.31009,-74.05926,CA,10
6052788,Les Coteaux,45.28338,-74.23254,CA,10
6053154,Lethbridge,49.69999,-112.81856,CA,1
6053446,Lewisporte,49.24343,-55.06196,CA,5
6053877,L'Île-Perrot,45.38338,-73.9492,CA,10
6054238,Limoges,45.3334,-75.24931,CA,8
6054258,Lincoln,45.90012,-66.58218,CA,4
6054350,Lindsay,44.35012,-78.73286,CA,8
6054474,Linière,46.00007,-70.41572,CA,10
6054551,Linwood,43.58171,-80.72815,CA,8
6054578,Lions Bay,49.45218,-123.2376,CA,2
6054677,Listowel,43.7334,-80.94973,CA,8
6055388,Little Current,45.97927,-81.9248,CA,8
6057842,Lively,46.43338,-81.14975,CA,8
6058024,Lloydminster,53.27237,-110.02256,CA,1
6058415,Logan Lake,50.49225,-120.8149,CA,2
6058560,London,42.98339,-81.23304,CA,8
6059891,Longueuil,45.53121,-73.51806,CA,10
6060325,Lorette,49.73919,-96.87232,CA,3
6060407,Lorraine,45.68338,-73.78249,CA,10
6060697,Lotbinière,46.61675,-71.93239,CA,10
6060839,Louiseville,46.25594,-72.94145,CA,10
6061745,Lucan,43.18339,-81.39976,CA,8
6061958,Lumby,50.24979,-118.96904,CA,2
6061979,Lumsden,50.65009,-104.86783,CA,11
6062069,Lunenburg,44.37847,-64.31658,CA,7
6062163,Lutes Mountain,46.13544,-64.90504,CA,4
6062563,Macamic,48.75018,-78.99962,CA,10
6063191,Mackenzie,55.33637,-123.09374,CA,2
6063429,Macklin,52.33344,-109.93484,CA,11
6063989,Madoc,44.50842,-77.47448,CA,8
6064180,Magog,45.26678,-72.14909,CA,10
6064202,Magrath,49.41668,-112.86856,CA,1
6064704,Malartic,48.13633,-78.12533,CA,10
6064969,Malvern,43.80938,-79.22344,CA,8
6065088,Mandeville,46.36677,-73.34915,CA,10
6065253,Manitouwadge,49.12152,-85.8403,CA,8
6065262,Maniwaki,46.38341,-75.96605,CA,10
6065306,Manning,56.92166,-117.63117,CA,1
6065347,Mannville,53.33345,-111.1684,CA,1
6065592,Maple Creek,49.90628,-109.48094,CA,11
6065685,Maple Ridge,53.50172,-113.36274,CA,1
6065686,Maple Ridge,49.21939,-122.60193,CA,2
6066350,Marieville,45.43338,-73.16585,CA,10
6066504,Markdale,44.3168,-80.64971,CA,8
6066513,Markham,43.86682,-79.2663,CA,8
6066548,Markland Wood,43.63347,-79.57569,CA,8
6067033,Martensville,52.28339,-106.66792,CA,11
6067472,Marystown,47.16663,-55.14829,CA,5
6067494,Mascouche,45.74965,-73.59956,CA,10
6067547,Maskinongé,46.2286,-73.01917,CA,10
6067747,Matagami,49.76326,-77.62735,CA,10
6067959,Mattawa,46.31681,-78.69957,CA,8
6068315,Mayerthorpe,53.95015,-115.13547,CA,1
6068416,Mayo,63.59274,-135.89984,CA,12
6071421,Meadow Lake,54.13348,-108.43471,CA,11
6071497,Meaford,44.60725,-80.61081,CA,8
6071618,Medicine Hat,50.03928,-110.67661,CA,1
6071876,Melfort,52.86673,-104.61768,CA,11
6071900,Melita,49.26811,-100.99669,CA,3
6071936,Melocheville,45.31726,-73.9371,CA,10
6071971,Melville,50.91671,-102.80099,CA,11
6072206,Mercier,45.31678,-73.74919,CA,10
6072350,Merritt,50.11225,-120.7942,CA,2
6072447,Métabetchouan,48.36679,-72.01583,CA,10
6072470,Metcalfe,45.2334,-75.46603,CA,8
6072482,Metchosin,48.38293,-123.53591,CA,2
6073289,Middleton,44.94284,-65.07022,CA,7
6073290,Middleton,45.71659,-63.17932,CA,7
6073363,Midland,44.7501,-79.88296,CA,8
6073561,Mildmay,44.043,-81.11889,CA,8
6073749,Millbrook,44.15012,-78.44954,CA,8
6074099,Millet,53.09415,-113.47056,CA,1
6074143,Milliken,43.82499,-79.29872,CA,8
6074377,Milton,43.51681,-79.88294,CA,8
6074409,Mimico,43.61616,-79.51269,CA,8
6074882,Minnedosa,50.24532,-99.84364,CA,3
6075061,Mirabel,45.65008,-74.08251,CA,10
6075081,Miramichi,47.02895,-65.50186,CA,4
6075292,Mission,49.13298,-122.30258,CA,2
6075357,Mississauga,43.5789,-79.6583,CA,8
6075359,Mississauga Beach,43.25876,-79.08625,CA,8
6075491,Mistissini,50.41832,-73.86895,CA,10
6076211,Moncton,46.09454,-64.7965,CA,4
6076690,Montague,46.16681,-62.64866,CA,9
6076939,Montebello,45.6501,-74.93258,CA,10
6077128,Mont-Laurier,46.55011,-75.4993,CA,10
6077243,Montréal,45.50884,-73.58781,CA,10
6077251,Montréal-Est,45.63202,-73.5075,CA,10
6077265,Montréal-Ouest,45.45286,-73.64918,CA,10
6077315,Mont-Royal,45.51675,-73.64918,CA,10
6077338,Mont-Saint-Grégoire,45.33338,-73.16585,CA,10
6077340,Mont-Saint-Hilaire,45.56515,-73.1868,CA,10
6077445,Mont-Tremblant,46.21274,-74.58438,CA,10
6077991,Moose Factory,51.26689,-80.61624,CA,8
6078112,Moose Jaw,50.40005,-105.53445,CA,11
6078177,Moose Lake,49.20559,-95.30629,CA,3
6078359,Moosomin,50.14261,-101.66666,CA,11
6078372,Moosonee,51.27931,-80.6345,CA,8
6078447,Morden,49.1919,-98.10136,CA,3
6078607,Morin-Heights,45.90009,-74.24922,CA,10
6078636,Morinville,53.80014,-113.65203,CA,1
6078727,Morris,49.35499,-97.36567,CA,3
6078737,Morrisburg,44.9001,-75.18261,CA,8
6079673,Mount Albert,44.13341,-79.3163,CA,8
6080088,Mount Brydges,42.90009,-81.48306,CA,8
6080488,Mount Dennis,43.68694,-79.48917,CA,8
6082231,Mount Pearl,47.51659,-52.78135,CA,5
6085444,Nackawic,45.99666,-67.24028,CA,4
6085532,Nahanni Butte,61.03346,-123.38639,CA,13
6085665,Nakusp,50.24987,-117.80226,CA,2
6085772,Nanaimo,49.16638,-123.94003,CA,2
6085892,Nanton,50.35008,-113.76866,CA,1
6085931,Napanee,44.25012,-76.94944,CA,8
6085960,Napierville,45.18648,-73.40468,CA,10
6086590,Neebing,48.1668,-89.41683,CA,8
6086673,Neepawa,50.22892,-99.46642,CA,3
6086871,Nelson,49.49985,-117.28553,CA,2
6087029,Nepean,45.33619,-75.7225,CA,8
6087315,Neustadt,44.08339,-80.99973,CA,8
6087579,New Glasgow,45.58344,-62.64863,CA,7
6087591,New Hamburg,43.38339,-80.6997,CA,8
6087624,New Hazelton,55.24635,-127.5923,CA,2
6087701,Newmarket,44.05011,-79.46631,CA,8
6087704,New Maryland,45.89662,-66.68225,CA,4
6087824,New Toronto,43.60019,-79.50527,CA,8
6087844,New Westminster,49.20678,-122.91092,CA,2
6087892,Niagara Falls,43.10012,-79.06627,CA,8
6088132,Nicolet,46.23085,-72.61292,CA,10
6088469,Nipawin,53.36678,-104.00092,CA,11
6088677,Niverville,49.60559,-97.04234,CA,3
6089009,Noonan,45.96682,-66.53218,CA,4
6089125,Norfolk County,42.8334,-80.38297,CA,8
6089179,Normandin,48.83328,-72.53209,CA,10
6089245,Norman Wells,65.28201,-126.8329,CA,13
6089404,North Battleford,52.77972,-108.2967,CA,11
6089426,North Bay,46.3168,-79.46633,CA,8
6089661,North Cowichan,48.84133,-123.68596,CA,2
6090405,North Perth,43.7251,-80.96723,CA,8
6090579,North Saanich,48.66634,-123.41933,CA,2
6090785,North Vancouver,49.31636,-123.06934,CA,2
6091197,Norwood,44.38342,-77.98281,CA,8
6091314,Notre-Dame-de-Grâce,45.47675,-73.61432,CA,10
6091369,Notre-Dame-de-l'Île-Perrot,45.36678,-73.9325,CA,10
6091422,Notre-Dame-des-Prairies,46.05007,-73.43245,CA,10
6091445,Notre-Dame-du-Lac,46.75012,-79.04961,CA,10
6091451,Notre-Dame-du-Mont-Carmel,46.0168,-75.08259,CA,10
6091919,Oak Bay,48.44964,-123.3026,CA,2
6092095,Oakridge,43.69686,-79.28028,CA,8
6092122,Oakville,43.45011,-79.68292,CA,8
6092125,Oakwood Village,43.68278,-79.43833,CA,8
6092873,Oka,45.46489,-74.08892,CA,10
6092889,Okanagan Falls,49.35,-119.56667,CA,2
6093010,Okotoks,50.72885,-113.98281,CA,1
6093347,Olds,51.78341,-114.10199,CA,1
6093514,Oliver,49.18306,-119.5524,CA,2
6094201,Orangeville,43.9168,-80.09967,CA,8
6094325,Orillia,44.60868,-79.42068,CA,8
6094391,Ormstown,45.13338,-73.99922,CA,10
6094407,Oromocto,45.83512,-66.47917,CA,4
6094573,Osgoode,45.14887,-75.59778,CA,8
6094578,Oshawa,43.90012,-78.84957,CA,8
6094665,Osoyoos,49.03306,-119.45237,CA,2
6094817,Ottawa,45.41117,-75.69812,CA,8
6094884,Otterburn Park,45.53338,-73.21585,CA,10
6095416,Outlook,51.48803,-107.05644,CA,11
6095645,Owen Sound,44.56717,-80.94349,CA,8
6095751,Oxbow,49.23335,-102.1676,CA,11
6095779,Oxford,45.73345,-63.86542,CA,7
6095989,Paddle Prairie,57.95014,-117.48608,CA,1
6096232,Paisley,44.30641,-81.27265,CA,8
6096551,Pangnirtung,66.14642,-65.69996,CA,14
6096672,Papineauville,45.6168,-75.01599,CA,10
6098542,Parkhill,43.15993,-81.68464,CA,8
6098642,Parksville,49.31947,-124.31575,CA,2
6098717,Parrsboro,45.40567,-64.32585,CA,7
6098747,Parry Sound,45.34732,-80.03527,CA,8
6098924,Pasadena,49.01671,-57.59837,CA,5
6100069,Peace River,56.23715,-117.29176,CA,1
6100086,Peachland,49.76862,-119.74633,CA,2
6100681,Pelican Narrows,55.16685,-102.9341,CA,11
6100799,Pemberton,50.31641,-122.80273,CA,2
6100832,Pembroke,45.81681,-77.11616,CA,8
6100954,Penhold,52.13342,-113.8687,CA,1
6101141,Penticton,49.48062,-119.58584,CA,2
6101546,Perth,44.90011,-76.24939,CA,8
6101606,Petawawa,45.89452,-77.28007,CA,8
6101645,Peterborough,44.30012,-78.31623,CA,8
6103581,Petrolia,42.86678,-82.14981,CA,8
6104111,Pickering,43.90012,-79.13289,CA,8
6104215,Picton,44.00176,-77.14637,CA,8
6104221,Pictou,45.67875,-62.70936,CA,7
6104231,Picture Butte,49.8833,-112.78516,CA,1
6104260,Piedmont,45.90008,-74.13251,CA,10
6104329,Pierreville,46.07034,-72.81125,CA,10
6104745,Pilot Butte,50.48011,-104.41911,CA,11
6104841,Pincher Creek,49.48328,-113.95195,CA,1
6104876,Pincourt,45.38338,-73.9825,CA,10
6104966,Pine Falls,50.56641,-96.21808,CA,3
6105815,Pitt Meadows,49.22119,-122.68965,CA,2
6106158,Plantagenet,45.5326,-74.99369,CA,8
6106255,Plattsville,43.30794,-80.61618,CA,8
6106676,Point de Bute,45.90064,-64.24186,CA,4
6107272,Pointe-Calumet,45.50008,-73.9659,CA,10
6107325,Pointe-Claire,45.44868,-73.81669,CA,10
6107683,Pointe-du-Lac,48.50009,-71.78241,CA,10
6109273,Ponoka,52.6768,-113.58147,CA,1
6110611,Pont Rouge,48.88332,-72.08247,CA,10
6111529,Portage la Prairie,49.97282,-98.29263,CA,3
6111632,Port Alberni,49.24133,-124.8028,CA,2
6111696,Port-Cartier,50.03339,-66.86545,CA,10
6111704,Port Colborne,42.90012,-79.23288,CA,8
6111706,Port Coquitlam,49.26637,-122.76932,CA,2
6111867,Port Hawkesbury,45.61685,-61.34853,CA,7
6111882,Port Hope,44.01682,-78.39953,CA,8
6111953,Port McNeill,50.59,-127.08638,CA,2
6111962,Port Moody,49.28124,-122.82457,CA,2
6112000,Port Rowan,42.6168,-80.46638,CA,8
6112027,Port Stanley,42.66679,-81.21644,CA,8
6112057,Port Williams,45.10015,-64.41546,CA,7
6112530,Powassan,46.0334,-79.34961,CA,8
6112608,Powell River,49.83278,-124.52368,CA,2
6112681,Powerview,50.56611,-96.19868,CA,3
6112862,Preeceville,51.94998,-102.66766,CA,11
6113027,Prescott,44.71681,-75.51604,CA,8
6113198,Prévost,45.86678,-74.08251,CA,10
6113335,Prince Albert,53.20008,-105.76772,CA,11
6113355,Prince Edward,44.00012,-77.24946,CA,8
6113365,Prince George,53.9166,-122.75301,CA,2
6113406,Prince Rupert,54.31507,-130.32098,CA,2
6113463,Princeton,49.45802,-120.51076,CA,2
6113466,Princeville,45.76684,-61.29853,CA,7
6113828,Provost,52.35014,-110.26828,CA,1
6114228,Puntledge,49.67322,-125.02907,CA,2
6115156,Queenswood Heights,45.47083,-75.50556,CA,8
6115187,Quesnel,52.97842,-122.4931,CA,2
6115355,Quinte West,44.18342,-77.56618,CA,8
6115754,Gamèti,64.11203,-117.35304,CA,13
6116394,Ranchero,50.654,-119.20236,CA,2
6116548,Rankin Inlet,62.80906,-92.08534,CA,14
6117611,Rawdon,46.05007,-73.71587,CA,10
6117675,Raymond,49.46382,-112.66024,CA,1
6117731,Rayside-Balfour,46.60873,-81.20763,CA,8
6118158,Red Deer,52.26682,-113.802,CA,1
6118417,Red Lake,51.01678,-93.82736,CA,8
6118425,Red Lake,51.06676,-93.73373,CA,8
6119101,Regent Park,43.66041,-79.3615,CA,8
6119109,Regina,50.45008,-104.6178,CA,11
6119113,Regina Beach,50.79146,-104.98006,CA,11
6119448,Renfrew,45.46681,-76.68272,CA,8
6119518,Repentigny,45.74222,-73.45008,CA,10
6121621,Revelstoke,50.99712,-118.1953,CA,2
6122037,Richelieu,45.44336,-73.24602,CA,10
6122053,Richibucto,46.68073,-64.88044,CA,4
6122078,Richmond,45.66677,-72.1491,CA,10
6122081,Richmond,45.1834,-75.83266,CA,8
6122085,Richmond,49.17003,-123.13683,CA,2
6122091,Richmond Hill,43.87111,-79.43725,CA,8
6122180,Rideau Park,53.47899,-113.5047,CA,1
6122230,Ridgetown,42.43536,-81.88733,CA,8
6122288,Rigaud,45.47927,-74.30238,CA,10
6122374,Rimbey,52.6334,-114.23532,CA,1
6122707,Rivers,50.03081,-100.24029,CA,3
6124931,Rivière-Rouge,46.41679,-74.86596,CA,10
6125653,Roberval,48.5168,-72.23244,CA,10
6125862,Roblin,51.22999,-101.3565,CA,3
6126305,Rock Forest,45.35699,-71.99676,CA,10
6126336,Rock Island,45.00699,-72.09628,CA,10
6126540,Rockwood,43.61899,-80.14441,CA,8
6126749,Rocky Mountain House,52.36683,-114.9188,CA,1
6127681,Rosemère,45.63338,-73.79919,CA,10
6127749,Rosetown,51.5501,-108.00136,CA,11
6127950,Rossland,49.08313,-117.80224,CA,2
6128008,Rosthern,52.66679,-106.33446,CA,11
6128081,Rouge,43.80406,-79.16571,CA,8
6128089,Rougemont,45.43338,-73.04914,CA,10
6128577,Rouyn-Noranda,48.23656,-79.02311,CA,10
6128795,Royston,49.64703,-124.9467,CA,2
6136572,Russell,45.2501,-75.36602,CA,8
6137063,Sackville,45.89868,-64.36836,CA,4
6137270,Saguenay,48.41675,-71.06573,CA,10
6137327,Saint-Adolphe-d'Howard,45.96679,-74.33253,CA,10
6137352,Saint-Alexandre,50.02539,-66.86155,CA,10
6137353,Saint-Alexandre,45.5001,-75.74935,CA,10
6137378,Saint-Amable,45.65008,-73.29916,CA,10
6137381,Saint-Ambroise,48.55447,-71.32148,CA,10
6137383,Saint-Ambroise,46.07647,-73.55636,CA,10
6137404,Saint-André-Avellin,45.7168,-75.06599,CA,10
6137411,Saint Andrews,45.0737,-67.05312,CA,4
6137422,Saint-Antoine,46.36294,-64.74985,CA,4
6137462,Saint-Augustin,51.22602,-58.65017,CA,10
6137479,Saint-Barnabé-Sud,45.72977,-72.92244,CA,10
6137489,Saint-Basile-le-Grand,45.53338,-73.28246,CA,10
6137525,Saint-Boniface,46.50011,-75.98264,CA,10
6137533,Saint-Bruno,48.46679,-71.6491,CA,10
6137539,Saint-Bruno-de-Guigues,47.46685,-79.43296,CA,10
6137540,Saint-Bruno-de-Montarville,45.53341,-73.34916,CA,10
6137557,Saint-Canut,45.71502,-74.08376,CA,10
6137571,Saint-Césaire,45.41678,-72.99914,CA,10
6137576,Saint-Charles,45.70288,-73.55417,CA,10
6137587,Saint-Charles-de-Bourget,48.56679,-71.36578,CA,10
6137626,Saint-Colomban,45.73338,-74.13251,CA,10
6137631,Saint-Côme--Linière,46.06677,-70.51573,CA,10
6137633,Saint-Constant,45.36678,-73.56588,CA,10
6137649,Saint-Cyrille-de-Wendover,45.93336,-72.43241,CA,10
6137655,Saint-Damase,45.53341,-72.99914,CA,10
6137676,Saint-Denis-sur-Richelieu,45.78338,-73.14915,CA,10
6137692,Saint-Donat-de-Montcalm,46.31868,-74.22171,CA,10
6137696,Sainte-Adèle,45.95008,-74.13251,CA,10
6137702,Sainte-Agathe-des-Monts,46.05009,-74.28252,CA,10
6137733,Sainte-Anne-de-Bellevue,45.40618,-73.9456,CA,10
6137749,Sainte-Anne-des-Monts,49.12402,-66.49243,CA,10
6137753,Sainte-Anne-des-Plaines,45.76468,-73.81156,CA,10
6137764,Sainte-Béatrix,46.20007,-73.61587,CA,10
6137780,Sainte-Catherine,45.40008,-73.58248,CA,10
6137781,Sainte-Catherine,46.31836,-72.56632,CA,10
6137823,Sainte-Croix,45.13368,-72.80083,CA,10
6137842,Saint-Édouard,45.23338,-73.51588,CA,10
6137941,Sainte-Julie,45.58338,-73.33246,CA,10
6137947,Sainte-Julienne,45.96677,-73.71587,CA,10
6137970,Saint-Elzéar,45.60338,-73.72698,CA,10
6137971,Sainte-Madeleine,45.60008,-73.09914,CA,10
6138032,Sainte-Marthe-sur-le-Lac,45.53338,-73.9325,CA,10
6138038,Sainte-Martine,45.25008,-73.79919,CA,10
6138047,Saint-Émile-de-Suffolk,45.9334,-74.91597,CA,10
6138075,Saint-Éphrem-de-Beauce,46.06677,-70.94905,CA,10
6138103,Sainte-Sophie,45.81678,-73.89919,CA,10
6138118,Sainte-Thècle,46.81676,-72.49911,CA,10
6138121,Sainte-Thérèse,45.63922,-73.82757,CA,10
6138175,Saint-Eustache,45.565,-73.90554,CA,10
6138196,Saint-Faustin,46.11679,-74.48253,CA,10
6138201,Saint-Félicien,48.65007,-72.44906,CA,10
6138210,Saint-Félix-de-Valois,46.16977,-73.42525,CA,10
6138260,Saint-Gabriel,46.30007,-73.38245,CA,10
6138276,Saint-Gédéon,48.50009,-71.76581,CA,10
6138310,Saint-Germain-de-Grantham,45.83337,-72.56582,CA,10
6138352,Saint-Hippolyte,45.93338,-74.0159,CA,10
6138360,Saint-Honoré,48.53338,-71.08236,CA,10
6138374,Saint-Hyacinthe,45.63076,-72.95699,CA,10
6138380,Saint-Ignace,46.70013,-65.08204,CA,4
6138400,Saint-Isidore,47.43345,-79.29965,CA,10
6138411,Saint-Jacques,45.94867,-73.57026,CA,10
6138419,Saint-Jacques-le-Mineur,45.28338,-73.41587,CA,10
6138446,Saint-Jean-Baptiste,45.3806,-74.0121,CA,10
6138495,Saint-Jean-sur-Richelieu,45.30713,-73.26259,CA,10
6138501,Saint-Jérôme,45.78036,-74.00365,CA,10
6138517,Saint John,45.27076,-66.05616,CA,4
6138535,Saint-Joseph,45.95817,-73.22025,CA,10
6138558,Saint-Joseph-de-Coleraine,45.96677,-71.36577,CA,10
6138573,Saint-Joseph-du-Lac,45.53338,-73.9992,CA,10
6138610,Saint-Laurent,45.50008,-73.66585,CA,10
6138617,Saint-Lazare,45.40008,-74.13256,CA,10
6138625,Saint-Léonard,45.58773,-73.59501,CA,10
6138628,Saint-Léonard-d'Aston,46.10723,-72.3735,CA,10
6138638,Saint-Liboire,45.65068,-72.76348,CA,10
6138643,Saint-Lin-Laurentides,45.85008,-73.76588,CA,10
6138719,Saint-Marc-des-Carrières,46.68335,-72.0491,CA,10
6138754,Saint-Mathieu,45.31678,-73.51587,CA,10
6138791,Saint-Michel,45.56758,-73.62168,CA,10
6138802,Saint-Michel-des-Saints,46.67702,-73.91881,CA,10
6138815,Saint-Nazaire,48.58944,-71.55247,CA,10
6138912,Saint-Philippe-de-La Prairie,45.35723,-73.47706,CA,10
6138916,Saint-Pie,45.50277,-72.9089,CA,10
6138920,Saint-Pie-V,46.00351,-72.74689,CA,10
6138950,Saint-Pierre-les-Becquets,46.50005,-72.1991,CA,10
6138966,Saint-Polycarpe,45.30009,-74.29924,CA,10
6138968,Saint-Prime,48.59242,-72.33555,CA,10
6138974,Saint-Raphaël,46.25011,-76.01605,CA,10
6138980,Saint-Raymond,45.46698,-73.60948,CA,10
6138987,Saint-Rémi,45.26678,-73.61588,CA,10
6138996,Saint-Rémi-de-Tingwick,45.86677,-71.81581,CA,10
6139045,Saint-Sauveur,45.88686,-74.17943,CA,10
6139047,Saint-Sauveur-des-Monts,45.90008,-74.16591,CA,10
6139113,Saint-Théophile,45.93338,-70.48233,CA,10
6139123,Saint-Thomas,46.01677,-73.34915,CA,10
6139154,Saint-Tite,46.73336,-72.56581,CA,10
6139181,Saint-Victor,45.61118,-73.51527,CA,10
6139216,Saint-Zotique,45.25009,-74.24924,CA,10
6139289,Salaberry-de-Valleyfield,45.25008,-74.13253,CA,10
6139354,Salisbury,46.03905,-65.04628,CA,4
6139393,Salluit,62.20411,-75.64344,CA,10
6139413,Salmo,49.19554,-117.27704,CA,2
6139416,Salmon Arm,50.6998,-119.30237,CA,2
6139678,Saltair,48.94963,-123.76939,CA,2
6141190,Sarnia,42.97866,-82.40407,CA,8
6141256,Saskatoon,52.13238,-106.66892,CA,11
6141439,Sault Ste. Marie,46.51677,-84.33325,CA,8
6141900,Scarborough Village,43.73899,-79.22124,CA,8
6142418,Scotch Creek,50.89981,-119.4524,CA,2
6142503,Scott,49.81684,-74.58248,CA,10
6142917,Seaforth,43.55009,-81.39976,CA,8
6143367,Sechelt,49.47512,-123.75903,CA,2
6144054,Selkirk,50.1436,-96.88452,CA,3
6144195,Senneterre,48.39302,-77.23951,CA,10
6144312,Sept-Îles,50.20011,-66.38208,CA,10
6144602,Sexsmith,55.34998,-118.78602,CA,1
6145425,Shaunavon,49.65005,-108.4181,CA,11
6145489,Shawinigan,46.56675,-72.74913,CA,10
6145563,Shawville,45.60011,-76.4827,CA,10
6145668,Shediac,46.21981,-64.54107,CA,4
6145672,Shediac Cape,46.23344,-64.56545,CA,4
6145887,Shelburne,43.76325,-65.32355,CA,7
6145890,Shelburne,44.0787,-80.20408,CA,8
6145951,Shellbrook,53.21679,-106.40109,CA,11
6146045,Shenley,46.00007,-70.83234,CA,10
6146143,Sherbrooke,45.40008,-71.89908,CA,10
6146279,Sherwood Park,53.51684,-113.3187,CA,1
6147353,Sicamous,50.83312,-118.98565,CA,2
6147962,Simcoe,42.8334,-80.29967,CA,8
6148374,Sioux Lookout,50.06676,-91.98358,CA,8
6149374,Slave Lake,55.28344,-114.76896,CA,1
6149996,Smithers,54.78036,-127.17428,CA,2
6150174,Smiths Falls,44.90452,-76.02333,CA,8
6150293,Smoky Lake,54.11687,-112.46863,CA,1
6151264,Sooke,48.37463,-123.72762,CA,2
6151350,Sorel-Tracy,46.04178,-73.11358,CA,10
6151455,Souris,46.3501,-62.24862,CA,9
6151456,Souris,49.6172,-100.2612,CA,3
6152244,South Huron,43.31679,-81.51647,CA,8
6152561,South River,45.8334,-79.38293,CA,8
6153117,Spanish,46.20007,-82.34984,CA,8
6153250,Sparwood,49.73332,-114.88532,CA,2
6153766,Spirit River,55.78327,-118.83607,CA,1
6154159,Springdale,49.49995,-56.06492,CA,5
6154202,Springhill,45.65015,-64.04873,CA,7
6154383,Spruce Grove,53.53344,-113.91874,CA,1
6154636,Squamish,49.69925,-123.15631,CA,2
6154897,St. Adolphe,49.6744,-97.11124,CA,3
6155033,St. Albert,53.63344,-113.63533,CA,1
6155302,St. Anthony,51.37039,-55.59743,CA,5
6155721,St. Catharines,43.17126,-79.24267,CA,8
6155762,St. Claude,49.65861,-98.34244,CA,3
6155763,St. Clements,43.5168,-80.6497,CA,8
6155938,Steeles,43.81205,-79.33082,CA,8
6156102,Steinbach,49.52579,-96.68451,CA,3
6156244,Stephenville,48.55001,-58.5818,CA,5
6156245,Stephenville Crossing,48.50001,-58.4318,CA,5
6156307,Stettler,52.31683,-112.71861,CA,1
6156606,St. François Xavier,49.9128,-97.54237,CA,3
6156822,Stirling,44.30012,-77.54948,CA,8
6156874,St. Jean Baptiste,49.26559,-97.34037,CA,3
6157355,Stonewall,50.13441,-97.32676,CA,3
6157430,Stoney Point,44.26681,-79.53292,CA,8
6157536,Stony Plain,53.53343,-114.00205,CA,1
6157795,St. Paul,53.98347,-111.28507,CA,1
6157977,Stratford,43.36679,-80.94972,CA,8
6158023,Strathmore,51.05011,-113.38523,CA,1
6158357,St. Thomas,42.77361,-81.18038,CA,8
6159232,Summerland,49.59977,-119.66911,CA,2
6159244,Summerside,46.39593,-63.78762,CA,9
6159474,Sundre,51.8001,-114.63532,CA,1
6159570,Sunnybrae,50.76651,-119.26907,CA,2
6159580,Sunny Corner,46.9334,-65.81545,CA,4
6159905,Surrey,49.10635,-122.82509,CA,2
6159980,Sussex,45.72266,-65.50663,CA,4
6160070,Sutton,45.10008,-72.61582,CA,10
6160291,Swan Hills,54.71681,-115.40226,CA,1
6160362,Swan River,52.1058,-101.26759,CA,3
6160603,Swift Current,50.28337,-107.80135,CA,11
6160806,Sylvan Lake,52.311,-114.08375,CA,1
6160919,Taber,49.78703,-112.14603,CA,1
6161443,Tam O'Shanter-Sullivan,43.77977,-79.29502,CA,8
6162007,Tavistock,43.31679,-80.83302,CA,8
6162654,Témiscaming,46.72122,-79.09712,CA,10
6162659,Temiskaming Shores,47.49376,-79.71529,CA,8
6162907,Terence Bay,44.47011,-63.72159,CA,7
6162949,Terrace,54.51634,-128.60345,CA,2
6162997,Terrasse-des-Pins,45.86449,-74.06627,CA,10
6163012,Terrebonne,45.70004,-73.64732,CA,10
6163363,The Beaches,43.67372,-79.29539,CA,8
6164499,The Pas,53.82159,-101.24488,CA,3
6164831,Thessalon,46.25006,-83.5666,CA,8
6165406,Thompson,55.7435,-97.85579,CA,3
6165719,Thorold,43.11682,-79.19958,CA,8
6165875,Three Hills,51.70012,-113.26863,CA,1
6166142,Thunder Bay,48.38202,-89.25018,CA,8
6166224,Thurso,45.6001,-75.24931,CA,10
6166739,Timmins,48.46686,-81.33312,CA,8
6166987,Tisdale,52.85002,-104.05096,CA,11
6167125,Tobermory,45.25007,-81.66647,CA,8
6167254,Tofield,53.36684,-112.66862,CA,1
6167817,Torbay,47.66659,-52.73135,CA,5
6167865,Toronto,43.70011,-79.4163,CA,8
6167983,Tottenham,44.02437,-79.80553,CA,8
6168326,Trail,49.09983,-117.70223,CA,2
6168788,Très-Saint-Rédempteur,45.43339,-74.38254,CA,10
6169141,Trois-Rivières,46.34515,-72.5477,CA,10
6169587,Truro,45.36685,-63.26538,CA,7
6169661,Tsawwassen,49.01667,-123.08333,CA,2
6170031,Tuktoyaktuk,69.44472,-133.03422,CA,13
6170118,Tumbler Ridge,55.13027,-120.99415,CA,2
6170799,Tweed,44.47512,-77.31616,CA,8
6171332,Two Hills,53.71031,-111.74595,CA,1
6171515,Tyndall,50.0828,-96.6589,CA,3
6171633,Ucluelet,48.94153,-125.54635,CA,2
6172009,Unity,52.45014,-109.16816,CA,11
6172355,Upper Island Cove,47.64989,-53.21478,CA,5
6172408,Upper Liard,60.04958,-128.90613,CA,12
6172932,Uxbridge,44.10012,-79.11628,CA,8
6172998,Valcourt,45.50008,-72.31581,CA,10
6173001,Val-David,46.03338,-74.21592,CA,10
6173012,Val-des-Monts,45.6501,-75.66604,CA,10
6173017,Val-d'Or,48.0974,-77.79737,CA,10
6173220,Valleyview,55.06673,-117.28585,CA,1
6173241,Val-Morin,46.00008,-74.18251,CA,10
6173331,Vancouver,49.24966,-123.11934,CA,2
6173361,Vanderhoof,54.01657,-124.01982,CA,2
6173404,Vanier,45.4399,-75.66498,CA,8
6173508,Varennes,45.68338,-73.43246,CA,10
6173570,Vaudreuil-Dorion,45.40008,-74.03251,CA,10
6173577,Vaughan,43.8361,-79.49827,CA,8
6173600,Vauxhall,50.06678,-112.11853,CA,1
6173635,Vegreville,53.50015,-112.05182,CA,1
6173690,Venise-en-Québec,45.08338,-73.13245,CA,10
6173750,Verchères,45.78338,-73.34916,CA,10
6173801,Vermilion,53.35409,-110.85849,CA,1
6173864,Vernon,50.26729,-119.27337,CA,2
6173865,Vernon,50.0261,-126.36157,CA,2
6174041,Victoria,48.4359,-123.35155,CA,2
6174151,Victoriaville,46.05007,-71.96579,CA,10
6174254,Viking,53.09606,-111.77527,CA,1
6174335,Ville-Marie,47.33345,-79.43297,CA,10
6174406,Vineland,43.15132,-79.39449,CA,8
6174457,Virden,49.8508,-100.93262,CA,3
6174462,Virgil,43.21682,-79.13288,CA,8
6174468,Virgin Arm-Carter's Cove,49.53322,-54.78145,CA,5
6174687,Vulcan,50.40008,-113.25189,CA,1
6174727,Wabana,47.63319,-52.94806,CA,5
6174914,Wadena,51.94999,-103.80102,CA,11
6175059,Wainwright,52.83482,-110.85342,CA,1
6175108,Wakefield,45.6668,-75.83265,CA,10
6175609,Walpole Island,42.6152,-82.51398,CA,8
6176226,Warman,52.31679,-106.56791,CA,11
6176300,Warren,50.13171,-97.54738,CA,3
6176393,Warwick,45.95007,-71.9824,CA,10
6176421,Wasaga Beach,44.5168,-80.01637,CA,8
6176563,Waskaganish,51.48333,-78.75,CA,10
6176654,Waswanipi,49.73346,-76.16604,CA,10
6176751,Waterford,42.9334,-80.28296,CA,8
6176821,Waterloo,45.35008,-72.51582,CA,10
6176823,Waterloo,43.4668,-80.51639,CA,8
6176902,Watford,42.95008,-81.88309,CA,8
6176928,Watrous,51.66677,-105.46788,CA,11
6176992,Watson Lake,60.06349,-128.70893,CA,12
6177154,Waverley,44.78345,-63.5987,CA,7
6177178,Wawa,47.98877,-84.77411,CA,8
6177814,Welcome Beach,49.47959,-123.89239,CA,2
6177869,Welland,42.98342,-79.24958,CA,8
6177893,Wellesley,43.47691,-80.76209,CA,8
6177945,Wells,45.38508,-65.929,CA,4
6178038,Wembley,55.14995,-119.13602,CA,1
6178582,West End,49.28333,-123.13333,CA,2
6178999,West Hill,43.76737,-79.1795,CA,8
6179138,Westlock,54.15016,-113.86876,CA,1
6179147,West Lorne,42.60009,-81.59976,CA,8
6179226,Westmount,45.48341,-73.59918,CA,10
6179268,Weston,43.70359,-79.51513,CA,8
6179560,Westville,45.56685,-62.71534,CA,7
6179602,Wetaskiwin,52.96683,-113.36869,CA,1
6179652,Weyburn,49.66675,-103.85109,CA,11
6180144,Whistler,50.11817,-122.95396,CA,2
6180266,White City,50.43338,-104.36778,CA,11
6180285,Whitecourt,54.15015,-115.68548,CA,1
6180550,Whitehorse,60.71611,-135.05375,CA,12
6180675,White Lake,50.88311,-119.30238,CA,2
6180961,White Rock,49.02049,-122.79507,CA,2
6182001,Wilkie,52.41683,-108.70142,CA,11
6182212,Williams Lake,52.14153,-122.14451,CA,2
6182823,Winchester,45.0834,-75.34933,CA,8
6182958,Windsor,44.98345,-64.13204,CA,7
6182959,Windsor,45.56678,-71.99909,CA,10
6182962,Windsor,42.30008,-83.01654,CA,8
6183141,Wingham,43.88793,-81.31145,CA,8
6183204,Winkler,49.1817,-97.94104,CA,3
6183235,Winnipeg,49.8844,-97.14704,CA,3
6183590,Woburn,43.76657,-79.22773,CA,8
6183858,Wolfville,45.08345,-64.36546,CA,7
6184365,Woodstock,43.13339,-80.7497,CA,8
6184938,Wychwood,43.67757,-79.4218,CA,8
6185007,Wynndel,49.18,-116.5525,CA,2
6185021,Wynyard,51.76674,-104.18436,CA,11
6185138,Yamachiche,46.28175,-72.82873,CA,10
6185217,Yarmouth,43.83345,-66.11557,CA,7
6185377,Yellowknife,62.45411,-114.37248,CA,13
6185607,Yorkton,51.2167,-102.46766,CA,11
6185619,Youbou,48.86632,-124.20271,CA,2
6186038,Zephyr,44.20011,-79.2663,CA,8
6269202,Lac-des-Aigles,47.99038,-68.67777,CA,10
6295855,Beauceville,46.21785,-70.77873,CA,10
6324729,Halifax,44.6464,-63.57291,CA,7
6324733,St. John's,47.56494,-52.70931,CA,5
6325479,Beaupré,47.04428,-70.89529,CA,10
6325486,Château-Richer,46.96031,-71.03219,CA,10
6325493,Kamouraska,47.56593,-69.86631,CA,10
6325494,Québec,46.81228,-71.21454,CA,10
6325516,L'Ange-Gardien,46.91976,-71.08253,CA,10
6325521,Lévis,46.80326,-71.17793,CA,10
6325529,Montmagny,46.98043,-70.55493,CA,10
6325572,Neuville,46.69823,-71.58275,CA,10
6354894,Portneuf,46.69058,-71.89011,CA,10
6354895,Rimouski,48.44879,-68.52396,CA,10
6354897,Rivière-du-Loup,47.82699,-69.54243,CA,10
6354900,Saint-André,47.67833,-69.72229,CA,10
6354908,Sydney,46.1351,-60.1831,CA,7
6354950,Tofino,49.15314,-125.90744,CA,2
6354954,Jasper,52.87946,-118.08041,CA,1
6534203,L'Ancienne-Lorette,46.79392,-71.35191,CA,10
6545023,Edmundston,47.3737,-68.32512,CA,4
6620467,St-Jean-Port-Joli,47.21418,-70.26969,CA,10
6620953,Saint-Georges,46.11353,-70.66526,CA,10
6639619,Sainte Catherine de la Jacques Cartier,46.85244,-71.62056,CA,10
6639665,Tadoussac,48.15001,-69.71667,CA,10
6690232,Baie-Saint-Paul,47.44109,-70.49858,CA,10
6693777,Carleton-sur-Mer,48.10749,-66.128,CA,10
6694966,Hopedale,55.46737,-60.20319,CA,5
6695808,Cacouna,47.91657,-69.50054,CA,10
6696258,Campbellton,48.00751,-66.67272,CA,4
6696259,Bathurst,47.61814,-65.65112,CA,4
6696260,Matane,48.82857,-67.52197,CA,10
6942553,Paris,43.2,-80.38333,CA,8
6942645,Buckingham,45.58563,-75.4208,CA,10
6943488,Amqui,48.46382,-67.43134,CA,10
6943602,Miscou,47.94395,-64.57111,CA,4
6943713,Dawson City,64.06013,-139.43328,CA,12
6943714,Deline,65.19844,-123.40565,CA,13
6943733,Weymontachie,47.8994,-73.7772,CA,10
6943811,Chandler,48.34935,-64.67926,CA,10
6943820,Murdochville,48.9583,-65.5006,CA,10
6943825,Bonaventure,48.04573,-65.49259,CA,10
6943826,New-Richmond,48.16059,-65.85823,CA,10
6943827,Thetford-Mines,46.09371,-71.30539,CA,10
6943833,New Carlisle,48.00956,-65.33621,CA,10
6943834,Carleton,48.10252,-66.11962,CA,10
6944109,Cabano,47.68065,-68.8781,CA,10
6944111,Sacré-Coeur,48.2297,-69.80061,CA,10
6944112,Forestville,48.73808,-69.08478,CA,10
6944113,Mont-Joli,48.58388,-68.19214,CA,10
6945979,Lillooet,50.6856,-121.942,CA,2
6945984,Saint-Anselme,46.62922,-70.9734,CA,10
6945986,La Malbaie,47.654,-70.15268,CA,10
6945989,Sainte-Marie,46.43401,-71.01168,CA,10
6945991,Plessisville,46.21856,-71.76201,CA,10
6945997,Maliotenam,50.21119,-66.18164,CA,10
6955478,Les Escoumins,48.35191,-69.40724,CA,10
6957320,Churchill Falls,53.53153,-64.00849,CA,5
7116273,Fossambault-sur-le-Lac,46.87662,-71.61541,CA,10
7280414,Cole Harbour,44.67244,-63.47506,CA,7
7281931,Okanagan,50.36386,-119.34997,CA,2
7281936,West Kelowna,49.8625,-119.58333,CA,2
7283711,Saint-Mathieu-de-Rioux,48.18317,-68.98693,CA,10
7290516,St. George,43.24495,-80.25144,CA,8
7302644,Tracadie-Sheila,47.51444,-64.91806,CA,4
7303783,Sydney Mines,46.23669,-60.21767,CA,7
7303784,Hartland,46.29986,-67.51669,CA,4
7303786,Jonquière,48.41648,-71.24884,CA,10
7535673,Cap-Santé,46.67159,-71.78812,CA,10
7535681,Saint-Augustin-de-Desmaures,46.74064,-71.45131,CA,10
7535690,Donnacona,46.68042,-71.7239,CA,10
7535692,La Pocatière,47.36733,-70.03484,CA,10
7535693,Saint-Joseph-de-Beauce,46.3,-70.86667,CA,10
7535694,Metabetchouan-Lac-a-la-Croix,48.41,-71.78,CA,10
7602078,Ladner,49.08938,-123.08241,CA,2
7669005,Bell Acres,49.07791,-121.86756,CA,2
7669006,Baker Trails,49.08668,-121.93743,CA,2
7669012,Walnut Grove,49.16473,-122.64042,CA,2
7669018,Aldergrove,49.05801,-122.47087,CA,2
7731836,Saint-Léonard,47.16317,-67.9246,CA,4
7731837,Harrison Brook,47.21304,-67.92847,CA,4
7803723,Omemee,44.29897,-78.55989,CA,8
7870136,Patrick Fogarty Catholic Secondary School,44.62552,-79.43095,CA,8
7870334,Cowichan Bay,48.73366,-123.61739,CA,2
7870782,Moss Park,43.65498,-79.37153,CA,8
7870864,Casa Loma,43.68345,-79.41248,CA,8
7870882,High Park North,43.65626,-79.47454,CA,8
7870895,Roncesvalles,43.64887,-79.45016,CA,8
7870910,Dufferin Grove,43.65766,-79.42793,CA,8
7870917,Little Portugal,43.64663,-79.42956,CA,8
7870919,Niagara,43.64455,-79.40712,CA,8
7870920,Trinity-Bellwoods,43.64791,-79.40849,CA,8
7870927,Napanee Downtown,44.24832,-76.95069,CA,8
7870931,Skatepark,44.25122,-76.94424,CA,8
7871302,Long Branch,43.5914,-79.53252,CA,8
7871306,Morningside,43.78727,-79.20636,CA,8
7871311,Eglinton East,43.73917,-79.24576,CA,8
7871312,Woodbine Corridor,43.67836,-79.31571,CA,8
7871313,Greenwood-Coxwell,43.68035,-79.32661,CA,8
7871314,Woodbine-Lumsden,43.69214,-79.3097,CA,8
7871317,Pleasant View,43.78609,-79.33502,CA,8
8051142,Bragg Creek,50.95129,-114.56028,CA,1
8131396,Breakeyville,46.68037,-71.22327,CA,10
8224455,Saint-Antoine-de-Tilly,46.66346,-71.57335,CA,10
8285452,Ancaster,43.21806,-79.98716,CA,8
8354533,Shannon,46.88026,-71.51464,CA,10
8354586,Saint-Henri,46.69314,-71.06927,CA,10
8354587,Saint-Lambert-de-Lauzon,46.58624,-71.20892,CA,10
8379097,Pohénégamook,47.46315,-69.22666,CA,10
8379100,Pont-Rouge,46.75468,-71.69566,CA,10
8379101,Princeville,46.17163,-71.87462,CA,10
8533869,West Vancouver,49.36672,-123.16652,CA,2
8556258,Saint-Siméon,47.84431,-69.87837,CA,10
8556299,L'Orignal,45.6198,-74.6915,CA,8
8558534,Willowdale,43.76672,-79.39909,CA,8
8581594,Florenceville-Bristol,46.44353,-67.61536,CA,4
8593671,Saint-Pascal,47.51813,-69.80301,CA,10
8593691,Vallée-Jonction,46.37441,-70.91881,CA,10
8593823,East Broughton,46.21358,-71.07674,CA,10
8616967,Maria,48.1749,-65.98595,CA,10
8617250,Shilo,49.80551,-99.64634,CA,3
9408331,Saint-Antonin,47.7607,-69.47745,CA,10
10287505,Lower Sackville,44.77599,-63.67865,CA,7
10627796,le Plateau,45.43514,-75.7803,CA,10
11203927,Wild Rose,53.4708,-113.38119,CA,1
11203928,Silver Berry,53.45787,-113.3817,CA,1
11203929,Laurel,53.44667,-113.38197,CA,1
11203930,Tamarack,53.46441,-113.36235,CA,1
11203933,Larkspur,53.47942,-113.38142,CA,1
11257139,Hérouxville,46.66617,-72.62512,CA,10
11429023,Saint-Norbert,46.16949,-73.31494,CA,10
11429024,Sainte-Élisabeth,46.09502,-73.35176,CA,10
11789599,Maisonnette,47.82364,-64.99838,CA,4
11789602,Saint-Basile,47.39149,-68.2711,CA,4
11789760,Shippagan,47.74424,-64.70804,CA,4
11791078,Mill Woods Town Centre,53.45639,-113.42751,CA,1
11810378,Fogo Island,49.71649,-54.16981,CA,5
11822501,Clair,47.25407,-68.60589,CA,4
11837933,Behchokǫ̀,62.8025,-116.04639,CA,13
11838088,Wendover,45.57275,-75.12757,CA,8
11838435,La Haute-Saint-Charles,46.89028,-71.37222,CA,10
12042098,Salt Spring Island,48.81852,-123.49061,CA,2
12069899,Petit-Rocher-Nord,47.80925,-65.73246,CA,4
12069937,Saint-Simon,47.73657,-64.84123,CA,4
12069938,Sainte-Cécile,47.85468,-64.66494,CA,4
12069941,Dunlop,47.68713,-65.73386,CA,4
12069946,Nicholas Denys,47.69863,-65.88047,CA,4
12069947,North Tetagouche,47.63537,-65.75864,CA,4
12070137,Robertville,47.69624,-65.77344,CA,4
12070150,Saint-Sauveur,47.52955,-65.26898,CA,4
12070170,Saumarez,47.50019,-64.93902,CA,4
12070173,Leech,47.45314,-64.98185,CA,4
12070742,Fallingbrook,45.47558,-75.48401,CA,8
12070746,Springbrook,52.1792,-113.87981,CA,1
12070751,Westlake,55.22228,-118.80415,CA,1
12070752,Grand Centre,54.41628,-110.21304,CA,1
12070753,Heritage Pointe,50.84213,-114.00493,CA,1
12070754,Aldergrove East,49.05614,-122.45457,CA,2
12070755,Duck Lake,50.0088,-119.39672,CA,2
12070756,Fairwinds,49.27588,-124.12782,CA,2
12070757,Cross Lake 19A,54.65135,-97.76848,CA,3
12070759,McEwen,46.1452,-64.78615,CA,4
12070760,Starlight Village,45.88308,-66.76905,CA,4
12070761,Hayes Subdivision,45.05519,-64.58795,CA,7
12070762,Eskasoni 3,45.94522,-60.61617,CA,7
12070763,Golden,51.05917,-93.73568,CA,8
12070764,Valley East,46.66773,-81.00028,CA,8
12076628,Haliburton Village,45.04921,-78.50854,CA,8
12076629,Luceville,48.54498,-68.39658,CA,10
12076630,Manawan,47.22029,-74.38606,CA,10
12076633,Hauterive,49.19572,-68.25813,CA,10
12076634,Le Bic,48.37549,-68.69415,CA,10
12076636,Parc-Boutin,45.29209,-73.26154,CA,10
12076640,North Oyster/Yellow Point,49.04807,-123.83395,CA,2
12076641,Baie Ste. Anne,47.05231,-64.95355,CA,4
12076642,South Pender Harbour,49.62202,-124.02484,CA,2
12076643,Fundy Bay,44.741,-66.76041,CA,4
12076644,Denman Island Trust Area,49.55189,-124.79881,CA,2
12076646,Shediac Bridge-Shediac River,46.26886,-64.60047,CA,4
12076647,Saint-Pacôme,47.40457,-69.95025,CA,10
12076648,Weedon Centre,45.70802,-71.45986,CA,10
12076649,Six Mile,48.45767,-123.46088,CA,2
12076652,Greater Lakeburn,46.07651,-64.66818,CA,4
12076655,Saint-Flavien,46.51187,-71.59648,CA,10
12076656,Mount Currie 6,50.32937,-122.66395,CA,2
12076657,Fairisle,47.27888,-65.12442,CA,4
12076658,Carlisle Road,45.98808,-66.75876,CA,4
12076659,Brantville,47.36922,-64.97122,CA,4
12076660,Tabusintac,47.3278,-65.01139,CA,4
12076661,Saint Irénée and Alderwood,47.49887,-64.98691,CA,4
12076663,Pepper Creek,45.95286,-66.59038,CA,4
12076664,Wedgewood,55.12245,-118.77316,CA,1
12076665,Haut-Sheila,47.74639,-64.91151,CA,4
12076666,Englishman River South,49.28209,-124.28164,CA,2
12076670,Evergreen Park,46.11307,-64.86358,CA,4
12076671,Sion,49.01682,-118.4921,CA,2
12076672,Skowkale 10,49.13631,-121.94244,CA,2
12076673,Lorne,47.8738,-66.12687,CA,4
12076674,Hatzic Island,49.16446,-122.23755,CA,2
12076677,Saprae Creek,56.6515,-111.1426,CA,1
12076678,Saint-Bernard-de-l'Île-aux-Coudres,47.0686,-70.5417,CA,10
12076679,Cherry Point,48.71216,-123.55872,CA,2
12076680,Fox Mountain,52.14438,-122.1121,CA,2
12156817,York University Heights,43.76574,-79.48888,CA,8
12156818,Parkwoods-Donalda,43.75503,-79.33018,CA,8
12156819,South Parkdale,43.6367,-79.43934,CA,8
12156820,South Riverdale,43.64929,-79.33565,CA,8
12156821,North St.James Town,43.66962,-79.37525,CA,8
12156822,Waterfront Communities-The Island,43.63388,-79.3772,CA,8
12156823,West Humber-Clairville,43.71619,-79.59636,CA,8
12156824,Banbury-Don Mills,43.73766,-79.34972,CA,8
12156825,Birchcliffe-Cliffside,43.69468,-79.26509,CA,8
12156826,Islington-City Centre West,43.63347,-79.54332,CA,8
12156827,Centennial Scarborough,43.78238,-79.15084,CA,8
12156828,Mount Pleasant West,43.70444,-79.39336,CA,8
12156829,Humewood-Cedarvale,43.69137,-79.42768,CA,8
12156830,Beechborough-Greenbrook,43.69322,-79.47947,CA,8
12156831,Blake-Jones,43.67617,-79.33739,CA,8
12156832,Forest Hill North,43.70422,-79.42814,CA,8
12156833,Corso Italia-Davenport,43.67766,-79.44747,CA,8
12156834,Danforth,43.68403,-79.32982,CA,8
12156835,Eringate-Centennial-West Deane,43.65802,-79.58044,CA,8
12156836,Junction Area,43.66789,-79.47144,CA,8
12156837,University,43.66251,-79.40118,CA,8
12156838,Dovercourt-Wallace Emerson-Junction,43.66568,-79.43854,CA,8
12156839,Edenbridge-Humber Valley,43.67089,-79.52246,CA,8
12156840,Newtonbrook East,43.79154,-79.40594,CA,8
12156841,Yonge-St.Clair,43.68786,-79.39787,CA,8
12156842,Newtonbrook West,43.78583,-79.43142,CA,8
12156843,L'Amoreaux,43.79572,-79.31408,CA,8
12156844,Yorkdale-Glen Park,43.71467,-79.45711,CA,8
12156845,Taylor-Massey,43.695,-79.2959,CA,8
12156846,Lambton Baby Point,43.65742,-79.49605,CA,8
12156847,Lawrence Park North,43.73006,-79.40398,CA,8
12156848,Palmerston-Little Italy,43.65916,-79.41841,CA,8
12156849,Lansing-Westgate,43.75427,-79.42475,CA,8
12156850,Lawrence Park South,43.71721,-79.40604,CA,8
12156851,Leaside-Bennington,43.7038,-79.36607,CA,8
12156852,Rexdale-Kipling,43.72373,-79.56623,CA,8
12156853,Mount Olive-Silverstone-Jamestown,43.74687,-79.58726,CA,8
12156854,Mount Pleasant East,43.70485,-79.38492,CA,8
12156855,North Riverdale,43.672,-79.35126,CA,8
12156856,Old East York,43.69678,-79.33549,CA,8
12156857,Willowdale West,43.77121,-79.42756,CA,8
12156858,Black Creek,43.76489,-79.52198,CA,8
12156859,Rockcliffe-Smythe,43.67479,-79.49442,CA,8
12156860,Pelmo Park-Humberlea,43.71752,-79.52828,CA,8
12156861,Playter Estates-Danforth,43.6797,-79.35489,CA,8
12156862,Rosedale-Moore Park,43.68282,-79.37967,CA,8
12156863,Runnymede-Bloor West Village,43.65927,-79.48571,CA,8
12156864,Rustic,43.71161,-79.49809,CA,8
12156865,Stonegate-Queensway,43.63552,-79.50113,CA,8
12156866,Briar Hill-Belgravia,43.69902,-79.45285,CA,8
12156867,Danforth East York,43.68947,-79.3314,CA,8
12156868,St.Andrew-Windfields,43.75625,-79.37904,CA,8
12156869,Broadview North,43.68883,-79.35563,CA,8
12156870,Thistletown-Beaumond Heights,43.73799,-79.56349,CA,8
12156871,Annex,43.67159,-79.404,CA,8
12156872,Thorncliffe Park,43.70775,-79.34998,CA,8
12156873,Victoria Village,43.72849,-79.31487,CA,8
12156874,Caledonia-Fairbank,43.68857,-79.45521,CA,8
12156875,Wexford/Maryvale,43.74857,-79.29864,CA,8
12156876,Weston-Pellam Park,43.67396,-79.46024,CA,8
12156877,Westminster-Branson,43.77881,-79.45242,CA,8
12156878,Willowdale East,43.7706,-79.40148,CA,8
12156879,Yonge-Eglinton,43.70469,-79.40359,CA,8
12156880,Maple Leaf,43.71557,-79.48076,CA,8
12156881,Willowridge-Martingrove-Richview,43.68364,-79.55422,CA,8
12156882,Church-Yonge Corridor,43.65965,-79.37902,CA,8
12156883,Brookhaven-Amesbury,43.70133,-79.48559,CA,8
12156884,O'Connor-Parkview,43.7068,-79.31223,CA,8
12156885,Princess-Rosethorn,43.66605,-79.54456,CA,8
12156886,Kensington-Chinatown,43.65355,-79.39724,CA,8
12156887,Bay Street Corridor,43.65751,-79.38572,CA,8
12156888,Agincourt South-Malvern West,43.78866,-79.26561,CA,8
12156889,Bayview Woods-Steeles,43.7968,-79.38212,CA,8
12156890,East End-Danforth,43.68417,-79.29936,CA,8
12156891,Cabbagetown-South St.James Town,43.66765,-79.36611,CA,8
12156892,Keelesdale-Eglinton West,43.68573,-79.47144,CA,8
12156893,Englemount-Lawrence,43.72035,-79.43741,CA,8
12156894,Forest Hill South,43.69453,-79.41432,CA,8
12156895,Humber Heights-Westmount,43.69223,-79.52242,CA,8
12156896,Bedford Park-Nortown,43.73149,-79.42023,CA,8
12156897,Bathurst Manor,43.76481,-79.45606,CA,8
12156898,Clanton Park,43.74198,-79.4463,CA,8
12156899,Clairlea-Birchmount,43.71359,-79.28138,CA,8
12156900,Bridle Path-Sunnybrook-York Mills,43.73101,-79.37891,CA,8
12156901,Don Valley Village,43.78329,-79.35364,CA,8
12156902,Elms-Old Rexdale,43.72152,-79.54898,CA,8
12156903,Downsview-Roding-CFB,43.73329,-79.49049,CA,8
12156904,Glenfield-Jane Heights,43.74564,-79.51347,CA,8
12156905,High Park-Swansea,43.64506,-79.46787,CA,8
12156906,Kingsview Village-The Westway,43.69899,-79.54786,CA,8
12156907,Kingsway South,43.65352,-79.51058,CA,8
4046255,Bay Minette,30.88296,-87.77305,US,AL
4046274,Edna,28.97859,-96.64609,US,TX
4046319,Bayou La Batre,30.40352,-88.24852,US,AL
4046332,Henderson,32.15322,-94.79938,US,TX
4046430,Natalia,29.18968,-98.86253,US,TX
4046474,Rankin,32.2057,-96.70666,US,TX
4046499,Bear Creek,34.27482,-87.70058,US,AL
4046538,South Toledo Bend,31.15324,-93.60462,US,TX
4046704,Fort Hunt,38.73289,-77.05803,US,VA
4046820,Nelsonia,37.81985,-75.58715,US,VA
4046946,Yorktown,37.23876,-76.50967,US,VA
4047198,Brighton,33.43428,-86.94721,US,AL
4047321,Bellamy,32.44903,-88.13363,US,AL
4047357,Bellefontaine,30.49353,-88.10361,US,AL
4047424,East Camden,33.60789,-92.74016,US,AR
4047474,Wilton,33.07873,-86.88166,US,AL
4047572,Guy,35.32536,-92.33432,US,AR
4047734,Ocean View,38.54511,-75.08907,US,DE
4047827,Berry,33.65983,-87.60001,US,AL
4047852,Matlacha,26.6298,-82.07092,US,FL
4047906,Trinity,28.18085,-82.68177,US,FL
4047914,Villas,26.55035,-81.8687,US,FL
4048023,Bessemer,33.40178,-86.95444,US,AL
4048084,Lenox,31.27158,-83.46488,US,GA
4048094,Patterson,31.38744,-82.14012,US,GA
4048332,Aurora,39.057,-84.90134,US,IN
4048388,New Pekin,38.50506,-86.01692,US,IN
4048488,Stockton,39.43807,-99.2651,US,KS
4048662,Paducah,37.08339,-88.60005,US,KY
4048850,Monticello,32.59653,-91.394,US,LA
4048888,Red Chute,32.55598,-93.61323,US,LA
4049032,Jessup,39.14927,-76.77525,US,MD
4049046,McCoole,39.44648,-78.97225,US,MD
4049714,Faith,35.58708,-80.46284,US,NC
4049858,Polkville,35.41763,-81.64287,US,NC
4049908,Vass,35.25627,-79.28225,US,NC
4049979,Birmingham,33.52066,-86.80249,US,AL
4050006,Delhi Hills,39.09284,-84.61272,US,OH
4050068,Racine,38.97119,-81.9143,US,OH
4050118,Turpin Hills,39.11006,-84.37994,US,OH
4050178,Cole,35.10229,-97.57281,US,OK
4050356,Lugoff,34.22737,-80.68925,US,SC
4050655,Blountsville,34.08149,-86.5911,US,AL
4050879,Blue Ridge,32.49264,-86.19052,US,AL
4050880,Buda,30.08521,-97.84028,US,TX
4050916,Beasley,29.49746,-95.91801,US,TX
4051059,Boaz,34.20065,-86.16637,US,AL
4051560,Branchville,33.7,-86.4,US,AL
4051581,Brantley,31.58238,-86.25718,US,AL
4051597,Brantleyville,33.21595,-86.87499,US,AL
4051669,Brent,32.93735,-87.16472,US,AL
4051714,Brewton,31.10518,-87.07219,US,AL
4051774,Bridgeport,34.94758,-85.71442,US,AL
4051827,Brilliant,34.02538,-87.75836,US,AL
4051894,Brook Highland,33.43566,-86.67388,US,AL
4051955,Brookside,33.63788,-86.91666,US,AL
4051971,Brookwood,33.25567,-87.32083,US,AL
4052177,Brundidge,31.72016,-85.81606,US,AL
4052726,Butler,32.08959,-88.22197,US,AL
4052824,Bynum,33.61316,-85.96108,US,AL
4052964,Cahaba Heights,33.464,-86.73193,US,AL
4053050,Calera,33.1029,-86.7536,US,AL
4053200,Camden,31.99098,-87.29055,US,AL
4053318,Camp Hill,32.80041,-85.65357,US,AL
4053671,Carbon Hill,33.89177,-87.52612,US,AL
4053823,Carrollton,33.26169,-88.09503,US,AL
4053940,Castleberry,31.29906,-87.02247,US,AL
4054073,Cedar Bluff,34.22009,-85.60774,US,AL
4054378,Center Point,33.64566,-86.6836,US,AL
4054555,Centre,34.15204,-85.67885,US,AL
4054566,Centreville,32.9462,-87.11669,US,AL
4054593,Chalkville,33.65316,-86.64777,US,AL
4054818,Chatom,31.46517,-88.25446,US,AL
4054852,Chelsea,33.34011,-86.63026,US,AL
4054866,Cherokee,34.75703,-87.97281,US,AL
4054996,Chickasaw,30.7638,-88.07472,US,AL
4055045,Childersburg,33.27817,-86.35498,US,AL
4055139,Choccolocco,33.65927,-85.70357,US,AL
4055535,Citronelle,31.09073,-88.22806,US,AL
4055577,Clanton,32.83874,-86.62943,US,AL
4055597,Susan Moore,34.08371,-86.42832,US,AL
4055650,Clay,33.7026,-86.59971,US,AL
4055684,Clayhatchee,31.23573,-85.72271,US,AL
4055696,Clayton,31.87822,-85.44966,US,AL
4055815,Cleveland,33.99093,-86.57749,US,AL
4055879,Clio,31.70878,-85.6105,US,AL
4056017,Coaling,33.15901,-87.34083,US,AL
4056154,Coker,33.24595,-87.68779,US,AL
4056381,Collinsville,34.26398,-85.86053,US,AL
4056419,Columbia,31.29271,-85.11267,US,AL
4056427,Columbiana,33.17817,-86.60721,US,AL
4056515,Concord,33.46761,-87.03111,US,AL
4056837,Coosada,32.49791,-86.33136,US,AL
4056920,Cordova,33.75983,-87.18333,US,AL
4057139,Cottonwood,31.04879,-85.30493,US,AL
4057261,Courtland,34.66898,-87.30946,US,AL
4057320,Cowarts,31.20018,-85.30465,US,AL
4057531,Creola,30.89185,-88.03972,US,AL
4057731,Crossville,34.28759,-85.99414,US,AL
4057835,Cullman,34.17482,-86.84361,US,AL
4058027,Dadeville,32.83124,-85.76357,US,AL
4058061,Daleville,31.31017,-85.71299,US,AL
4058198,Danville,34.41454,-87.08751,US,AL
4058219,Daphne,30.60353,-87.9036,US,AL
4058262,Dauphin Island,30.25548,-88.10972,US,AL
4058543,Deatsville,32.60819,-86.39581,US,AL
4058553,Decatur,34.60593,-86.98334,US,AL
4058662,Demopolis,32.51764,-87.8364,US,AL
4058971,Dodge City,34.04066,-86.88583,US,AL
4059070,Dora,33.72872,-87.09028,US,AL
4059102,Dothan,31.22323,-85.39049,US,AL
4059162,Double Springs,34.14637,-87.40247,US,AL
4059172,Douglas,34.17371,-86.32359,US,AL
4059584,Dunnavant,33.49344,-86.54415,US,AL
4059831,East Brewton,31.09323,-87.06275,US,AL
4059870,East Florence,34.80953,-87.64947,US,AL
4060176,Eclectic,32.63541,-86.03441,US,AL
4060232,Edgewater,33.52677,-86.95777,US,AL
4060324,Egypt,34.07371,-86.15581,US,AL
4060381,Elberta,30.41436,-87.59776,US,AL
4060791,Enterprise,31.31517,-85.85522,US,AL
4060954,Eufaula,31.89127,-85.14549,US,AL
4060991,Eutaw,32.84059,-87.88762,US,AL
4060998,Eva,34.33232,-86.75889,US,AL
4061064,Evergreen,31.4335,-86.95692,US,AL
4061113,Excel,31.42794,-87.34137,US,AL
4061206,Fairfield,33.48594,-86.91194,US,AL
4061234,Fairhope,30.52297,-87.90333,US,AL
4061466,Falkville,34.36843,-86.90862,US,AL
4061586,Fayette,33.68455,-87.83085,US,AL
4061602,Fayetteville,33.14567,-86.40581,US,AL
4062523,Flint City,34.52315,-86.97029,US,AL
4062568,Florala,31.00518,-86.328,US,AL
4062577,Florence,34.79981,-87.67725,US,AL
4062595,Flomaton,31.00018,-87.26081,US,AL
4062644,Foley,30.40659,-87.6836,US,AL
4062774,Forestdale,33.57011,-86.89638,US,AL
4062791,Forkland,32.64819,-87.88335,US,AL
4062824,Fort Deposit,31.98459,-86.57859,US,AL
4062861,Fort Payne,34.44425,-85.71969,US,AL
4063475,Frisco City,31.4335,-87.40138,US,AL
4063570,Fultondale,33.60483,-86.79388,US,AL
4063613,Fyffe,34.44676,-85.90414,US,AL
4063619,Gadsden,34.01434,-86.00639,US,AL
4063684,Gallant,33.99871,-86.24526,US,AL
4063765,Gardendale,33.6601,-86.81277,US,AL
4063926,Geneva,31.03296,-85.86382,US,AL
4064006,Georgiana,31.6371,-86.74192,US,AL
4064020,Geraldine,34.35148,-86.00081,US,AL
4064310,Glencoe,33.95704,-85.93247,US,AL
4064548,Good Hope,34.11593,-86.86361,US,AL
4064598,Goodwater,33.06567,-86.0533,US,AL
4064664,Gordo,33.32012,-87.9028,US,AL
4064840,Grand Bay,30.47631,-88.34223,US,AL
4064871,Grant,34.5287,-86.25332,US,AL
4065029,Grayson Valley,33.64816,-86.63943,US,AL
4065034,Graysville,33.62066,-86.97138,US,AL
4065282,Greensboro,32.70415,-87.5955,US,AL
4065302,Greenville,31.8296,-86.61775,US,AL
4065421,Grimes,31.30462,-85.44799,US,AL
4065475,Grove Hill,31.70877,-87.77722,US,AL
4065524,Guin,33.96566,-87.91475,US,AL
4065552,Gulf Shores,30.24604,-87.70082,US,AL
4065649,Guntersville,34.35823,-86.29446,US,AL
4065664,Gurley,33.77649,-86.63777,US,AL
4065665,Gurley,34.70176,-86.37582,US,AL
4065731,Hackleburg,34.27732,-87.82864,US,AL
4065830,Haleyville,34.22649,-87.62141,US,AL
4065965,Hamilton,34.14232,-87.98864,US,AL
4066065,Hanceville,34.06065,-86.7675,US,AL
4066335,Harpersville,33.344,-86.43804,US,AL
4066437,Hartford,31.1024,-85.69688,US,AL
4066449,Hartselle,34.44343,-86.93528,US,AL
4066463,Harvest,34.85564,-86.75083,US,AL
4066613,Hayden,33.8926,-86.75777,US,AL
4066661,Hayneville,32.18403,-86.58025,US,AL
4066686,Hazel Green,34.93231,-86.57194,US,AL
4066716,Headland,31.35128,-85.34216,US,AL
4066793,Heflin,33.64899,-85.58746,US,AL
4066811,Helena,33.29622,-86.8436,US,AL
4066844,Henagar,34.63508,-85.76719,US,AL
4067432,Hillsboro,34.63926,-87.19168,US,AL
4067501,Hissop,32.89235,-86.1533,US,AL
4067534,Hobson City,33.62149,-85.84413,US,AL
4067623,Hokes Bluff,33.99815,-85.86636,US,AL
4067725,Hollins,33.11762,-86.14442,US,AL
4067752,Hollis Crossroads,33.52372,-85.63718,US,AL
4067784,Holly Pond,34.17426,-86.61638,US,AL
4067814,Hollywood,34.72425,-85.97248,US,AL
4067815,Hollywood,33.47288,-86.78304,US,AL
4067840,Holt,33.23401,-87.48445,US,AL
4067862,Holtville,32.63624,-86.32664,US,AL
4067927,Homewood,33.47177,-86.80082,US,AL
4067994,Hoover,33.40539,-86.81138,US,AL
4068226,Horton,34.20093,-86.29692,US,AL
4068446,Hueytown,33.45122,-86.99666,US,AL
4068506,Huguley,32.83457,-85.22966,US,AL
4068590,Huntsville,34.7304,-86.58594,US,AL
4068707,Hurtsboro,32.24181,-85.41633,US,AL
4068778,Ider,34.71425,-85.6808,US,AL
4068933,Indian Springs Village,33.35539,-86.75443,US,AL
4069210,Inverness,32.01488,-85.74606,US,AL
4069243,Irondale,33.53816,-86.70721,US,AL
4069309,Ivalee,34.03454,-86.14525,US,AL
4069458,Jackson,31.50905,-87.89444,US,AL
4069545,Jacksons Gap,32.88624,-85.81163,US,AL
4069553,Jacksonville,33.81382,-85.7613,US,AL
4069659,Jasper,33.83122,-87.27751,US,AL
4069722,Jemison,32.95985,-86.74665,US,AL
4070318,Joppa,34.29787,-86.5561,US,AL
4070324,Joquin,31.78654,-86.16412,US,AL
4070786,Killen,34.86286,-87.53753,US,AL
4070806,Kimberly,33.77344,-86.81388,US,AL
4070997,Kinsey,31.29906,-85.34438,US,AL
4071000,Kinston,31.216,-86.17106,US,AL
4071262,Ladonia,32.4682,-85.0791,US,AL
4071267,Lafayette,32.89985,-85.40106,US,AL
4071488,Lake Purdy,33.43011,-86.68054,US,AL
4071540,Lake View,33.28067,-87.1375,US,AL
4071763,Lanett,32.86874,-85.1905,US,AL
4072130,Leeds,33.54816,-86.54443,US,AL
4072156,Leesburg,34.17982,-85.76136,US,AL
4072183,Leighton,34.70092,-87.52892,US,AL
4072240,Leroy,31.50461,-87.98472,US,AL
4072271,Level Plains,31.29962,-85.77799,US,AL
4072339,Lexington,34.96925,-87.37113,US,AL
4072752,Linden,32.30625,-87.79807,US,AL
4072767,Lincoln,33.61316,-86.11831,US,AL
4072814,Lineville,33.31067,-85.75441,US,AL
4072834,Lisman,32.16876,-88.28253,US,AL
4072842,Lipscomb,33.42566,-86.92666,US,AL
4073357,Littleville,34.59065,-87.67697,US,AL
4073358,Littleville,34.25149,-87.57502,US,AL
4073383,Livingston,32.5843,-88.18725,US,AL
4073483,Lockhart,31.01046,-86.34967,US,AL
4073504,Locust Fork,33.9076,-86.61527,US,AL
4073897,Loxley,30.61825,-87.75305,US,AL
4073985,Luverne,31.71655,-86.26385,US,AL
4074013,Lynn,34.04705,-87.54974,US,AL
4074267,Madison,34.69926,-86.74833,US,AL
4074363,Magnolia Springs,30.39964,-87.7761,US,AL
4074452,Malvern,31.13934,-85.5191,US,AL
4074544,Maplesville,32.78897,-86.87353,US,AL
4074568,Marbury,32.70124,-86.47109,US,AL
4074599,Margaret,33.68621,-86.47498,US,AL
4074673,Marion,32.63235,-87.31917,US,AL
4074991,Matthews,32.26542,-86.00385,US,AL
4075368,McDonald Chapel,33.52177,-86.9336,US,AL
4075526,McKenzie,31.54238,-86.71497,US,AL
4075692,Meadowbrook,33.40205,-86.69665,US,AL
4075854,Meridianville,34.85148,-86.57222,US,AL
4075977,Midfield,33.4615,-86.90888,US,AL
4075984,Midland City,31.31906,-85.49382,US,AL
4076066,Mignon,33.18345,-86.26109,US,AL
4076239,Millbrook,32.47986,-86.36192,US,AL
4076358,Millport,33.56345,-88.08142,US,AL
4076361,Millry,31.63405,-88.31335,US,AL
4076468,Minor,33.53733,-86.94055,US,AL
4076598,Mobile,30.69436,-88.04305,US,AL
4076725,Monroeville,31.52794,-87.32471,US,AL
4076771,Montevallo,33.10067,-86.86416,US,AL
4076784,Montgomery,32.36681,-86.29997,US,AL
4076842,Moody,33.59094,-86.49082,US,AL
4076982,Moores Mill,34.84398,-86.51832,US,AL
4077143,Morris,33.74816,-86.8086,US,AL
4077283,Mosses,32.17459,-86.67192,US,AL
4077329,Moulton,34.48121,-87.29335,US,AL
4077349,Moundville,32.99762,-87.63001,US,AL
4077867,Mount Olive,33.67094,-86.8561,US,AL
4078346,Mount Vernon,34.29259,-85.78775,US,AL
4078348,Mount Vernon,31.08518,-88.01333,US,AL
4078646,Mountain Brook,33.50094,-86.75221,US,AL
4078859,Mulga,33.54983,-86.97416,US,AL
4078898,Munford,33.52983,-85.9508,US,AL
4078964,Muscle Shoals,34.74481,-87.66753,US,AL
4079423,New Brockton,31.38572,-85.92939,US,AL
4079630,New Hope,34.53712,-86.39426,US,AL
4079916,New Market,34.91003,-86.42779,US,AL
4080080,New Site,33.03734,-85.77413,US,AL
4080193,Newton,31.33517,-85.60521,US,AL
4080208,Newville,31.42184,-85.33771,US,AL
4080395,North Bibb,33.20401,-87.15305,US,AL
4080417,North Courtland,34.67231,-87.32974,US,AL
4080555,Northport,33.22901,-87.57723,US,AL
4080646,Notasulga,32.56069,-85.67245,US,AL
4080754,Oak Grove,33.19178,-86.29942,US,AL
4081082,Oakman,33.71344,-87.38862,US,AL
4081166,Odenville,33.67732,-86.39665,US,AL
4081197,Ohatchee,33.78343,-86.00247,US,AL
4081644,Opelika,32.64541,-85.37828,US,AL
4081671,Oneonta,33.94815,-86.47276,US,AL
4081683,Opp,31.28267,-86.25551,US,AL
4081696,Orange Beach,30.29437,-87.57359,US,AL
4081816,Our Town,32.82818,-85.96191,US,AL
4081904,Owens Cross Roads,34.58815,-86.45888,US,AL
4081914,Oxford,33.61427,-85.83496,US,AL
4081936,Ozark,31.45906,-85.64049,US,AL
4082250,Parrish,33.73066,-87.28445,US,AL
4082569,Pelham,33.28567,-86.80999,US,AL
4082589,Pell City,33.58621,-86.28609,US,AL
4082688,Perdido Beach,30.34076,-87.50498,US,AL
4082866,Phenix City,32.47098,-85.00077,US,AL
4082869,Phil Campbell,34.35093,-87.70642,US,AL
4082983,Pickensville,33.22734,-88.26642,US,AL
4083004,Piedmont,33.92455,-85.61135,US,AL
4083073,Pike Road,32.28431,-86.10302,US,AL
4083181,Pinckard,31.31156,-85.55299,US,AL
4083370,Pine Hill,31.97959,-87.58806,US,AL
4083414,Pine Level,32.58374,-86.46553,US,AL
4083697,Pinson,33.68899,-86.68332,US,AL
4083725,Pisgah,34.68092,-85.84775,US,AL
4083727,Pisgah,31.99682,-86.11829,US,AL
4083846,Pleasant Grove,33.49094,-86.97027,US,AL
4084324,Point Clear,30.47408,-87.91916,US,AL
4084691,Powell,34.53183,-85.89455,US,AL
4084796,Prattville,32.46402,-86.4597,US,AL
4084883,Priceville,34.52509,-86.89473,US,AL
4084888,Prichard,30.7388,-88.07889,US,AL
4085311,Ragland,33.74454,-86.15581,US,AL
4085336,Rainbow City,33.95482,-86.04192,US,AL
4085373,Rainsville,34.49425,-85.84775,US,AL
4085521,Red Bay,34.43982,-88.14087,US,AL
4085659,Reece City,34.07232,-86.03331,US,AL
4085711,Reeltown,32.60374,-85.80524,US,AL
4085739,Reform,33.37845,-88.0153,US,AL
4085771,Rehobeth,31.12296,-85.45271,US,AL
4086224,Riverside,33.60621,-86.20442,US,AL
4086277,River Falls,31.35327,-86.54102,US,AL
4086285,Roanoke,33.15123,-85.37217,US,AL
4086363,Robertsdale,30.5538,-87.71193,US,AL
4086500,Rock Creek,33.47705,-87.08027,US,AL
4086552,Rock Mills,33.15984,-85.28745,US,AL
4086637,Rockford,32.88957,-86.21969,US,AL
4086921,Rogersville,34.82578,-87.29676,US,AL
4087313,Russellville,34.50787,-87.72864,US,AL
4088146,Saks,33.69871,-85.83969,US,AL
4088360,Samson,31.11295,-86.04605,US,AL
4088458,Sand Rock,34.24287,-85.76858,US,AL
4088628,Saraland,30.82074,-88.07056,US,AL
4088704,Sardis City,34.17426,-86.12275,US,AL
4088737,Satsuma,30.85324,-88.05611,US,AL
4088916,Scottsboro,34.67231,-86.03415,US,AL
4089040,Section,34.57897,-85.98664,US,AL
4089114,Selma,32.40736,-87.0211,US,AL
4089148,Semmes,30.77824,-88.25917,US,AL
4089536,Sheffield,34.76509,-87.69864,US,AL
4089549,Shelby,33.1104,-86.58415,US,AL
4090139,Silverhill,30.54547,-87.75166,US,AL
4090386,Skyline,34.81397,-86.11526,US,AL
4090470,Slocomb,31.10823,-85.59438,US,AL
4090684,Smiths Station,32.54014,-85.09855,US,AL
4090700,Smoke Rise,33.89177,-86.82027,US,AL
4090747,Snead,34.11954,-86.39554,US,AL
4090853,Somerville,34.47338,-86.7987,US,AL
4091006,South Vinemont,34.23899,-86.86445,US,AL
4091058,Southside,33.92454,-86.02247,US,AL
4091136,Spanish Fort,30.67491,-87.91527,US,AL
4091542,Springville,33.77505,-86.47191,US,AL
4091755,Steele,33.93982,-86.20164,US,AL
4091847,Sterrett,33.44872,-86.47998,US,AL
4091859,Stevenson,34.86869,-85.83942,US,AL
4091923,Stewartville,33.07929,-86.24442,US,AL
4092267,Sulligent,33.90177,-88.13448,US,AL
4092333,Sumiton,33.75566,-87.05,US,AL
4092347,Summerdale,30.4877,-87.69971,US,AL
4092671,Sylacauga,33.17317,-86.25164,US,AL
4092689,Sylvan Springs,33.51566,-87.01499,US,AL
4092692,Sylvania,34.56231,-85.81247,US,AL
4092788,Talladega,33.43594,-86.1058,US,AL
4092853,Tallassee,32.53597,-85.89329,US,AL
4092970,Tarrant,33.58344,-86.77277,US,AL
4093048,Taylor,31.1649,-85.46827,US,AL
4093050,Taylor,31.97543,-86.2333,US,AL
4093399,Theodore,30.54769,-88.17528,US,AL
4093488,Thomasville,31.91349,-87.73584,US,AL
4093619,Thorsby,32.91568,-86.71582,US,AL
4093753,Tillmans Corner,30.59019,-88.17084,US,AL
4093897,Town Creek,34.6812,-87.40613,US,AL
4093961,Trafford,33.81816,-86.74277,US,AL
4094025,Triana,34.5862,-86.73333,US,AL
4094048,Trinity,34.60676,-87.08835,US,AL
4094163,Troy,31.80877,-85.96995,US,AL
4094212,Trussville,33.61983,-86.60888,US,AL
4094455,Tuscaloosa,33.20984,-87.56917,US,AL
4094484,Tuscumbia,34.7312,-87.70253,US,AL
4094490,Tuskegee,32.42415,-85.69096,US,AL
4094975,Union Springs,32.14432,-85.71495,US,AL
4094997,Uniontown,32.44958,-87.51417,US,AL
4095186,Valley,32.81874,-85.17939,US,AL
4095213,Valley Grande,32.50902,-86.98749,US,AL
4095233,Valley Head,34.56897,-85.61497,US,AL
4095288,Vandiver,33.47066,-86.51332,US,AL
4095294,Vance,33.17428,-87.23361,US,AL
4095392,Vernon,33.75705,-88.10892,US,AL
4095415,Vestavia Hills,33.44872,-86.78777,US,AL
4095522,Vincent,33.38455,-86.41192,US,AL
4096021,Wadley,33.12289,-85.56968,US,AL
4096248,Walnut Grove,34.06565,-86.30637,US,AL
4096404,Warrior,33.81427,-86.80944,US,AL
4096645,Weaver,33.75205,-85.81135,US,AL
4096678,Webb,31.26045,-85.27327,US,AL
4096712,Wedowee,33.309,-85.48467,US,AL
4096956,West Blocton,33.11817,-87.125,US,AL
4097095,West Point,34.23871,-86.95917,US,AL
4097211,Westover,33.34955,-86.53582,US,AL
4097257,Wetumpka,32.54374,-86.21191,US,AL
4097406,White Hall,32.32708,-86.71192,US,AL
4097459,White Plains,33.74732,-85.68913,US,AL
4097588,Whitesboro,34.16343,-86.06942,US,AL
4098005,Wilmer,30.82324,-88.3614,US,AL
4098110,Wilsonville,33.23428,-86.48359,US,AL
4098161,Winfield,33.92899,-87.81725,US,AL
4098518,Woodstock,33.20678,-87.15,US,AL
4098527,Woodville,34.62787,-86.27443,US,AL
4098776,York,32.48625,-88.29642,US,AL
4099194,Alexander,34.62954,-92.44127,US,AR
4099296,Alma,35.47787,-94.22188,US,AR
4099347,Altheimer,34.31926,-91.84736,US,AR
4099350,Altus,35.4462,-93.76242,US,AR
4099390,Amity,34.26482,-93.46102,US,AR
4099647,Arkadelphia,34.12093,-93.05378,US,AR
4099673,Arkansas City,33.60872,-91.20678,US,AR
4099837,Ash Flat,36.22396,-91.60848,US,AR
4099852,Ashdown,33.67429,-94.13131,US,AR
4099932,Atkins,35.24647,-92.93656,US,AR
4099952,Augusta,35.28231,-91.36541,US,AR
4099974,Austin,34.99842,-91.98376,US,AR
4100008,Avoca,36.40202,-94.07076,US,AR
4100028,Avilla,34.68259,-92.58516,US,AR
4100170,Bald Knob,35.30981,-91.56791,US,AR
4100348,Barling,35.32565,-94.3016,US,AR
4100525,Batesville,35.7698,-91.64097,US,AR
4100592,Bay,35.7423,-90.56233,US,AR
4100808,Bearden,33.72455,-92.61571,US,AR
4100984,Beebe,35.07064,-91.87959,US,AR
4101114,Bella Vista,36.4807,-94.27134,US,AR
4101241,Benton,34.56454,-92.58683,US,AR
4101260,Bentonville,36.37285,-94.20882,US,AR
4101309,Berryville,36.36479,-93.56797,US,AR
4101456,Bethel Heights,36.21424,-94.12937,US,AR
4102088,Black Rock,36.1084,-91.09735,US,AR
4102412,Blytheville,35.9273,-89.91898,US,AR
4102553,Bonanza,35.23926,-94.42605,US,AR
4102581,Bono,35.90868,-90.80262,US,AR
4102622,Booneville,35.14009,-93.92159,US,AR
4102782,Bradford,35.42314,-91.45596,US,AR
4102790,Bradley,33.09819,-93.6549,US,AR
4103042,Brinkley,34.88787,-91.19457,US,AR
4103117,Brookland,35.90007,-90.58205,US,AR
4103448,Bryant,34.59593,-92.48905,US,AR
4103678,Bull Shoals,36.38396,-92.58155,US,AR
4103957,Cabot,34.97453,-92.01653,US,AR
4104004,Caddo Valley,34.18204,-93.07101,US,AR
4104078,Calico Rock,36.11951,-92.13599,US,AR
4104182,Camden,33.58456,-92.83433,US,AR
4104189,Cammack Village,34.77815,-92.34904,US,AR
4104566,Caraway,35.75813,-90.32232,US,AR
4104602,Carlisle,34.78315,-91.74652,US,AR
4104857,Cave City,35.94174,-91.54847,US,AR
4104897,Cave Springs,36.26341,-94.23187,US,AR
4105064,Cedarville,35.56981,-94.36688,US,AR
4105168,Centerton,36.3598,-94.28521,US,AR
4105377,Charleston,35.29704,-94.03632,US,AR
4105435,Cherokee Village,36.29784,-91.51597,US,AR
4105468,Cherry Valley,35.40203,-90.75317,US,AR
4105824,Clarendon,34.69315,-91.31374,US,AR
4105879,Clarksville,35.47147,-93.46657,US,AR
4106074,Clinton,35.59147,-92.46044,US,AR
4106126,Coal Hill,35.43731,-93.67297,US,AR
4106276,College City,36.12535,-90.93929,US,AR
4106292,College Station,34.70815,-92.22126,US,AR
4106458,Conway,35.0887,-92.4421,US,AR
4106689,Corning,36.40784,-90.57983,US,AR
4106721,Cotter,36.27118,-92.53544,US,AR
4106733,Cotton Plant,35.00815,-91.25124,US,AR
4107198,Crossett,33.12818,-91.96124,US,AR
4107630,Danville,35.05398,-93.39352,US,AR
4107641,Dardanelle,35.22314,-93.15795,US,AR
4107802,De Queen,34.03789,-94.34132,US,AR
4107820,De Valls Bluff,34.78482,-91.45846,US,AR
4107823,De Witt,34.29288,-91.3379,US,AR
4107903,Decatur,36.33591,-94.46077,US,AR
4108038,Dennard,35.75674,-92.52461,US,AR
4108090,Dermott,33.52539,-91.43595,US,AR
4108091,Des Arc,34.97704,-91.49513,US,AR
4108167,Diamond City,36.46451,-92.92017,US,AR
4108184,Diaz,35.63841,-91.26513,US,AR
4108212,Dierks,34.11928,-94.01658,US,AR
4108950,Dover,35.40147,-93.11434,US,AR
4109226,Dumas,33.88705,-91.49179,US,AR
4109338,Dyer,35.49231,-94.13771,US,AR
4109406,Earle,35.27509,-90.46677,US,AR
4109452,East End,34.55065,-92.34099,US,AR
4109785,El Dorado,33.20763,-92.66627,US,AR
4109800,Elaine,34.30844,-90.85205,US,AR
4109857,Elkins,36.00147,-94.00825,US,AR
4109927,Elm Springs,36.20619,-94.23437,US,AR
4110001,England,34.54426,-91.96903,US,AR
4110100,Eudora,33.10957,-91.26206,US,AR
4110119,Eureka Springs,36.40118,-93.73797,US,AR
4110233,Fairfield Bay,35.59424,-92.27793,US,AR
4110443,Farmington,36.04202,-94.24715,US,AR
4110486,Fayetteville,36.06258,-94.15743,US,AR
4111212,Flippin,36.27896,-92.59711,US,AR
4111307,Foreman,33.72178,-94.39687,US,AR
4111319,Fordyce,33.81372,-92.41293,US,AR
4111382,Forrest City,35.00815,-90.78983,US,AR
4111410,Fort Smith,35.38592,-94.39855,US,AR
4111470,Fouke,33.26124,-93.88546,US,AR
4111484,Fountain Lake,34.57287,-92.98768,US,AR
4112036,Garfield,36.44841,-93.97409,US,AR
4112110,Gassville,36.28312,-92.49405,US,AR
4112163,Gentry,36.26758,-94.48466,US,AR
4112254,Gibson,34.88426,-92.2357,US,AR
4112321,Gillett,34.11732,-91.37651,US,AR
4112430,Glenwood,34.32677,-93.55074,US,AR
4112638,Gosnell,35.95979,-89.97203,US,AR
4112660,Goshen,36.10119,-93.99131,US,AR
4112662,Gould,33.9851,-91.56096,US,AR
4112765,Grannis,34.24067,-94.33493,US,AR
4112871,Gravel Ridge,34.86842,-92.1907,US,AR
4112898,Gravette,36.42202,-94.45355,US,AR
4113015,Green Forest,36.33535,-93.43602,US,AR
4113067,Greenbrier,35.23397,-92.38765,US,AR
4113113,Greenland,35.99425,-94.1752,US,AR
4113143,Greenwood,35.21565,-94.25577,US,AR
4113167,Greers Ferry,35.57702,-92.17737,US,AR
4113407,Gurdon,33.92094,-93.15406,US,AR
4113457,Hackett,35.19037,-94.41105,US,AR
4113607,Hamburg,33.22818,-91.79763,US,AR
4113647,Hampton,33.53789,-92.46988,US,AR
4113770,Hardy,36.3159,-91.48264,US,AR
4113951,Harrisburg,35.56425,-90.71678,US,AR
4113956,Harrison,36.22979,-93.10768,US,AR
4113994,Hartford,35.02288,-94.38133,US,AR
4114001,Hartman,35.43258,-93.61547,US,AR
4114047,Haskell,34.50148,-92.63655,US,AR
4114220,Hazen,34.78093,-91.58097,US,AR
4114225,Heber Springs,35.49147,-92.03126,US,AR
4114272,Helena,34.52955,-90.59177,US,AR
4114413,Hermitage,33.4465,-92.17403,US,AR
4114635,Higginson,35.19481,-91.71264,US,AR
4114673,Highland,36.2759,-91.52403,US,AR
4114693,Highfill,36.26147,-94.35771,US,AR
4114930,Holiday Island,36.48535,-93.73214,US,AR
4114945,Holland,35.17147,-92.27376,US,AR
4114992,Holly Grove,34.59593,-91.19984,US,AR
4115181,Hope,33.66706,-93.59157,US,AR
4115281,Horatio,33.93845,-94.35715,US,AR
4115334,Horseshoe Bend,36.22923,-91.76431,US,AR
4115412,Hot Springs,34.5037,-93.05518,US,AR
4115429,Hot Springs Village,34.67204,-92.99879,US,AR
4115508,Hoxie,36.05035,-90.97512,US,AR
4115578,Hughes,34.94926,-90.47149,US,AR
4115613,Humphrey,34.42204,-91.70624,US,AR
4115654,Huntington,35.08232,-94.26327,US,AR
4115658,Huntsville,36.08619,-93.7413,US,AR
4115759,Huttig,33.03957,-92.18264,US,AR
4115796,Imboden,36.20257,-91.17457,US,AR
4116315,Jacksonville,34.8662,-92.11015,US,AR
4116400,Jasper,36.00813,-93.18657,US,AR
4116660,Johnson,36.13286,-94.16548,US,AR
4116746,Joiner,35.50786,-90.14704,US,AR
4116834,Jonesboro,35.8423,-90.70428,US,AR
4116896,Judsonia,35.27009,-91.63986,US,AR
4116918,Junction City,33.01625,-92.72432,US,AR
4117286,Keiser,35.67452,-90.09981,US,AR
4117358,Kensett,35.23175,-91.66764,US,AR
4117417,Kibler,35.43037,-94.2316,US,AR
4117585,Kirby,34.25038,-93.6413,US,AR
4117661,Knoxville,35.38203,-93.36435,US,AR
4117869,Lake City,35.81619,-90.43427,US,AR
4117942,Lake Hamilton,34.42453,-93.09518,US,AR
4118121,Lake Village,33.32873,-91.28178,US,AR
4118196,Lakeview,36.36868,-92.54544,US,AR
4118223,Lamar,35.44064,-93.38796,US,AR
4118277,Landmark,34.6112,-92.3196,US,AR
4118450,Lavaca,35.3362,-94.17326,US,AR
4118507,Leachville,35.93591,-90.25788,US,AR
4118678,Leola,34.16954,-92.59099,US,AR
4118687,Lepanto,35.61119,-90.32982,US,AR
4118755,Lewisville,33.35846,-93.57768,US,AR
4118981,Lincoln,35.94953,-94.42355,US,AR
4119245,Little Flock,36.38591,-94.1352,US,AR
4119403,Little Rock,34.74648,-92.28959,US,AR
4119512,Lockesburg,33.96734,-94.16853,US,AR
4119617,London,35.32897,-93.25296,US,AR
4119817,Lonoke,34.78398,-91.89986,US,AR
4119972,Lowell,36.25535,-94.13076,US,AR
4120104,Luxora,35.75619,-89.92814,US,AR
4120274,Madison,35.01315,-90.72261,US,AR
4120286,Magazine,35.15092,-93.80687,US,AR
4120323,Magnolia,33.26707,-93.23933,US,AR
4120388,Malvern,34.36231,-92.81295,US,AR
4120398,Mammoth Spring,36.49562,-91.5407,US,AR
4120426,Manila,35.88007,-90.16704,US,AR
4120438,Mansfield,35.05954,-94.25271,US,AR
4120508,Marianna,34.77371,-90.75761,US,AR
4120524,Marion,35.21453,-90.19648,US,AR
4120544,Marked Tree,35.53286,-90.42066,US,AR
4120581,Marmaduke,36.18701,-90.38316,US,AR
4120611,Marshall,35.90896,-92.63127,US,AR
4120684,Marvell,34.55566,-90.91289,US,AR
4120792,Maumelle,34.86676,-92.40432,US,AR
4120843,Mayflower,34.95703,-92.42738,US,AR
4120886,McAlmont,34.80842,-92.18181,US,AR
4120981,McCrory,35.2562,-91.20012,US,AR
4121052,McGehee,33.629,-91.39956,US,AR
4121185,McRae,35.11286,-91.82236,US,AR
4121256,Melbourne,36.05951,-91.90848,US,AR
4121297,Mena,34.58622,-94.23966,US,AR
4121436,Midway,36.38534,-92.46183,US,AR
4121792,Mineral Springs,33.87512,-93.9138,US,AR
4121954,Monette,35.89063,-90.34427,US,AR
4122015,Monticello,33.629,-91.79096,US,AR
4122218,Morrilton,35.15092,-92.74405,US,AR
4122466,Mount Ida,34.55676,-93.63408,US,AR
4122962,Mountain Pine,34.57203,-93.17324,US,AR
4122986,Mountain View,35.86841,-92.11765,US,AR
4123018,Mountainburg,35.63564,-94.16743,US,AR
4123037,Mountain Home,36.33534,-92.38516,US,AR
4123120,Mulberry,35.50064,-94.05159,US,AR
4123162,Murfreesboro,34.06233,-93.6899,US,AR
4123271,Nashville,33.94567,-93.84713,US,AR
4123800,Newark,35.70174,-91.44152,US,AR
4123830,Newport,35.6048,-91.2818,US,AR
4123988,Norphlet,33.31596,-92.66293,US,AR
4124039,North Crossett,33.16568,-91.94152,US,AR
4124112,North Little Rock,34.76954,-92.26709,US,AR
4124437,Oak Grove Heights,36.1209,-90.51066,US,AR
4124671,Ola,35.03231,-93.22323,US,AR
4124966,Oppelo,35.1012,-92.76767,US,AR
4125027,Osceola,35.70508,-89.96953,US,AR
4125168,Oxford,36.22118,-91.92932,US,AR
4125181,Ozark,35.48703,-93.8277,US,AR
4125265,Palestine,34.97232,-90.90262,US,AR
4125312,Pangburn,35.42675,-91.83681,US,AR
4125388,Paragould,36.0584,-90.49733,US,AR
4125402,Paris,35.29203,-93.72992,US,AR
4125487,Parkin,35.26342,-90.57122,US,AR
4125668,Pea Ridge,33.92066,-91.33679,US,AR
4125681,Pea Ridge,36.45396,-94.1152,US,AR
4125875,Perryville,35.00481,-92.80267,US,AR
4126105,Piggott,36.38284,-90.19065,US,AR
4126226,Pine Bluff,34.22843,-92.0032,US,AR
4126416,Piney,34.50314,-93.12602,US,AR
4126548,Plainview,34.98954,-93.2974,US,AR
4126911,Plumerville,35.16008,-92.64072,US,AR
4126923,Pocahontas,36.26146,-90.97123,US,AR
4127256,Pottsville,35.24814,-93.04906,US,AR
4127332,Prairie Creek,36.34202,-94.06187,US,AR
4127359,Prairie Grove,35.97591,-94.31771,US,AR
4127433,Prescott,33.80261,-93.38101,US,AR
4127735,Quitman,35.38425,-92.21571,US,AR
4127973,Rector,36.26312,-90.2926,US,AR
4128103,Redfield,34.4451,-92.1832,US,AR
4128469,Rison,33.95843,-92.19015,US,AR
4128764,Rockport,34.38759,-92.82545,US,AR
4128767,Rockwell,34.46426,-93.13379,US,AR
4128894,Rogers,36.33202,-94.11854,US,AR
4128927,Roland,34.90064,-92.49821,US,AR
4129397,Russellville,35.27842,-93.13379,US,AR
4129962,Salem,36.37118,-91.82265,US,AR
4129965,Salem,34.62898,-92.55822,US,AR
4130430,Searcy,35.25064,-91.73625,US,AR
4130703,Shannon Hills,34.62009,-92.39543,US,AR
4130821,Sheridan,34.30704,-92.40127,US,AR
4131116,Siloam Springs,36.18814,-94.5405,US,AR
4131396,Smackover,33.36485,-92.72488,US,AR
4131812,Southside,35.69841,-91.62347,US,AR
4132093,Springdale,36.18674,-94.12881,US,AR
4132194,Stamps,33.3654,-93.49518,US,AR
4132227,Star City,33.94288,-91.84347,US,AR
4132344,Stephens,33.41123,-93.06961,US,AR
4132582,Strong,33.10763,-92.33486,US,AR
4132625,Stuttgart,34.50037,-91.55263,US,AR
4132643,Subiaco,35.29287,-93.63464,US,AR
4132771,Sulphur Springs,36.48341,-94.45855,US,AR
4132772,Sulphur Springs,34.18065,-92.12348,US,AR
4132814,Summit,36.25229,-92.69072,US,AR
4132976,Sweet Home,34.68648,-92.24237,US,AR
4133024,Swifton,35.82174,-91.12846,US,AR
4133234,Taylor,33.10041,-93.46101,US,AR
4133367,Texarkana,33.44179,-94.03769,US,AR
4133707,Tontitown,36.17786,-94.23354,US,AR
4133806,Traskwood,34.44926,-92.65405,US,AR
4133933,Trumann,35.67369,-90.50733,US,AR
4133971,Tuckerman,35.73063,-91.19846,US,AR
4133998,Tumbling Shoals,35.54202,-91.96737,US,AR
4134132,Turrell,35.37981,-90.25787,US,AR
4134232,Tyronza,35.49008,-90.35871,US,AR
4134716,Van Buren,35.43676,-94.34827,US,AR
4134871,Vilonia,35.08398,-92.20793,US,AR
4134993,Waldo,33.35151,-93.29573,US,AR
4135004,Waldron,34.89843,-94.09076,US,AR
4135205,Walnut Ridge,36.0684,-90.95595,US,AR
4135279,Ward,35.03036,-91.95042,US,AR
4135349,Warren,33.61261,-92.06458,US,AR
4135648,Weiner,35.62036,-90.89845,US,AR
4135746,West Crossett,33.14096,-91.99402,US,AR
4135763,West Fork,35.92425,-94.18854,US,AR
4135840,West Helena,34.55066,-90.64177,US,AR
4135865,West Memphis,35.14648,-90.18454,US,AR
4136153,White Hall,34.27399,-92.09098,US,AR
4136413,Wickes,34.30317,-94.33827,US,AR
4136679,Wilmar,33.629,-91.93152,US,AR
4136688,Wilmot,33.05735,-91.57345,US,AR
4136692,Wilson,35.56814,-90.04203,US,AR
4136693,Wilson,35.21036,-92.92961,US,AR
4137113,Wooster,35.20203,-92.45599,US,AR
4137171,Wrightsville,34.60232,-92.21681,US,AR
4137215,Wynne,35.22453,-90.78678,US,AR
4137291,Yellville,36.22618,-92.68489,US,AR
4137457,Adams Morgan,38.9215,-77.0422,US,DC
4137775,Bloomingdale,38.91678,-77.01137,US,DC
4138011,Chevy Chase,38.964,-77.06776,US,DC
4140463,Shaw,38.91206,-77.02137,US,DC
4140963,Washington,38.89511,-77.03637,US,DC
4141363,Bear,39.62928,-75.65826,US,DE
4141402,Bellefonte,39.76622,-75.50936,US,DE
4141435,Bethany Beach,38.53956,-75.05518,US,DE
4141541,Blades,38.63567,-75.60993,US,DE
4141632,Bridgeville,38.74261,-75.60437,US,DE
4141674,Brookside,39.66706,-75.72688,US,DE
4141748,Camden,39.11345,-75.54187,US,DE
4141903,Cheswold,39.21928,-75.58576,US,DE
4141974,Claymont,39.80067,-75.45964,US,DE
4141982,Clayton,39.29067,-75.63437,US,DE
4142137,Dagsboro,38.54928,-75.24574,US,DE
4142191,Delaware City,39.57789,-75.58881,US,DE
4142226,Delmar,38.45651,-75.57715,US,DE
4142290,Dover,39.15817,-75.52437,US,DE
4142398,Edgemoor,39.75011,-75.49964,US,DE
4142424,Elsmere,39.73928,-75.59798,US,DE
4142485,Felton,39.00845,-75.57798,US,DE
4142601,Frankford,38.51734,-75.23491,US,DE
4142605,Frederica,39.009,-75.46575,US,DE
4142643,Georgetown,38.69011,-75.38547,US,DE
4142683,Glasgow,39.60483,-75.74521,US,DE
4142766,Greenville,39.779,-75.59826,US,DE
4142770,Greenwood,38.80706,-75.59132,US,DE
4142841,Harrington,38.92372,-75.5777,US,DE
4142942,Highland Acres,39.12095,-75.52187,US,DE
4142969,Hockessin,39.78761,-75.6966,US,DE
4143218,Kent Acres,39.13178,-75.52492,US,DE
4143319,Laurel,38.5565,-75.57131,US,DE
4143354,Lewes,38.77456,-75.13935,US,DE
4143459,Long Neck,38.62011,-75.15074,US,DE
4143637,Middletown,39.44956,-75.71632,US,DE
4143658,Milford,38.91261,-75.42797,US,DE
4143690,Millsboro,38.5915,-75.2913,US,DE
4143696,Millville,38.54956,-75.12324,US,DE
4143698,Milton,38.77761,-75.30991,US,DE
4143834,New Castle,39.66206,-75.56631,US,DE
4143861,Newark,39.68372,-75.74966,US,DE
4143871,Newport,39.71372,-75.60937,US,DE
4143897,North Star,39.76122,-75.7191,US,DE
4144100,Pike Creek,39.73095,-75.7041,US,DE
4144101,Pike Creek Valley,39.73622,-75.69827,US,DE
4144284,Rehoboth Beach,38.72095,-75.07601,US,DE
4144338,Riverview,39.0265,-75.51076,US,DE
4144366,Rodney Village,39.13206,-75.53242,US,DE
4144600,Seaford,38.64123,-75.61104,US,DE
4144620,Selbyville,38.46039,-75.22074,US,DE
4144764,Smyrna,39.29983,-75.60465,US,DE
4145047,Townsend,39.39511,-75.6916,US,DE
4145381,Wilmington,39.74595,-75.54659,US,DE
4145395,Wilmington Manor,39.68678,-75.58437,US,DE
4145483,Wyoming,39.11817,-75.55881,US,DE
4145571,Aberdeen,26.55063,-80.14866,US,FL
4145719,Alachua,29.75163,-82.42483,US,FL
4145805,Allapattah,25.81454,-80.22394,US,FL
4145837,Allentown,30.76269,-87.04219,US,FL
4145941,Altamonte Springs,28.66111,-81.36562,US,FL
4145945,Altha,30.57047,-85.12714,US,FL
4145956,Alturas,27.87169,-81.71508,US,FL
4145959,Alva,26.71562,-81.61008,US,FL
4146039,Andover,25.96843,-80.21283,US,FL
4146051,Andrews,29.53293,-82.88169,US,FL
4146082,Anna Maria,27.53115,-82.73343,US,FL
4146148,Apalachicola,29.726,-84.9856,US,FL
4146161,Apollo Beach,27.77308,-82.40759,US,FL
4146166,Apopka,28.67617,-81.51186,US,FL
4146206,Arcadia,27.21588,-81.85842,US,FL
4146219,Archer,29.52997,-82.519,US,FL
4146302,Asbury Lake,30.04913,-81.82149,US,FL
4146338,Astatula,28.70972,-81.73285,US,FL
4146339,Astor,29.16248,-81.52535,US,FL
4146354,Atlantic Beach,30.33441,-81.3987,US,FL
4146372,Atlantis,26.5909,-80.10088,US,FL
4146389,Auburndale,28.0653,-81.78869,US,FL
4146429,Aventura,25.95648,-80.13921,US,FL
4146440,Avon Park,27.59587,-81.50619,US,FL
4146464,Azalea Park,28.54111,-81.30062,US,FL
4146481,Babson Park,27.83197,-81.5223,US,FL
4146494,Bagdad,30.5988,-87.03223,US,FL
4146564,Bal Harbour,25.89176,-80.12699,US,FL
4146570,Baldwin,30.30274,-81.97539,US,FL
4146588,Balm,27.75947,-82.2612,US,FL
4146723,Bartow,27.89641,-81.84314,US,FL
4146823,Bay Harbor Islands,25.88759,-80.13116,US,FL
4146830,Bay Hill,28.46806,-81.51618,US,FL
4146855,Bay Pines,27.81419,-82.77816,US,FL
4146901,Bayonet Point,28.32667,-82.68343,US,FL
4146934,Bayshore Gardens,27.42532,-82.59038,US,FL
4146984,Beacon Square,28.20862,-82.75538,US,FL
4147145,Bee Ridge,27.28394,-82.48065,US,FL
4147241,Belle Glade,26.68451,-80.66756,US,FL
4147242,Belle Glade Camp,26.65757,-80.68284,US,FL
4147247,Belle Isle,28.45834,-81.35924,US,FL
4147255,Belleair,27.93585,-82.80621,US,FL
4147257,Belleair Beach,27.92308,-82.84316,US,FL
4147258,Belleair Bluffs,27.92141,-82.81705,US,FL
4147263,Belleview,29.05526,-82.06231,US,FL
4147290,Bellview,30.46159,-87.31497,US,FL
4147581,Beverly Hills,28.91692,-82.45815,US,FL
4147679,Big Coppitt Key,24.59653,-81.66009,US,FL
4147801,Big Pine Key,24.66987,-81.35397,US,FL
4147988,Biscayne Park,25.8826,-80.1806,US,FL
4148012,Bithlo,28.55472,-81.10645,US,FL
4148053,Black Diamond,28.91248,-82.48593,US,FL
4148207,Bloomingdale,27.89364,-82.24037,US,FL
4148237,Blountstown,30.44379,-85.04744,US,FL
4148399,Boca Del Mar,26.34508,-80.14671,US,FL
4148410,Boca Pointe,26.33313,-80.15949,US,FL
4148411,Boca Raton,26.35869,-80.0831,US,FL
4148504,Bokeelia,26.70563,-82.15898,US,FL
4148526,Bonifay,30.79186,-85.67965,US,FL
4148533,Bonita Springs,26.33981,-81.7787,US,FL
4148659,Bowling Green,27.63837,-81.82397,US,FL
4148674,Boyette,27.81753,-82.22259,US,FL
4148677,Boynton Beach,26.52535,-80.06643,US,FL
4148708,Bradenton,27.49893,-82.57482,US,FL
4148710,Bradenton Beach,27.46698,-82.70399,US,FL
4148747,Bradley Junction,27.79531,-81.98036,US,FL
4148757,Brandon,27.9378,-82.28592,US,FL
4148776,Branford,29.95912,-82.92818,US,FL
4148803,Brent,30.46881,-87.23608,US,FL
4148910,Briny Breezes,26.50841,-80.05087,US,FL
4148912,Bristol,30.43247,-84.97702,US,FL
4148944,Broadview Park,26.09953,-80.20866,US,FL
4148957,Bronson,29.44774,-82.64233,US,FL
4148975,Brookridge,28.5511,-82.49204,US,FL
4148986,Brooksville,28.55554,-82.38991,US,FL
4149010,Broward Estates,26.12564,-80.19338,US,FL
4149077,Brownsville,25.82176,-80.24116,US,FL
4149226,Buckhead Ridge,27.13033,-80.89367,US,FL
4149241,Buckingham,26.67507,-81.73203,US,FL
4149269,Buenaventura Lakes,28.33584,-81.35313,US,FL
4149342,Bunche Park,25.92065,-80.23699,US,FL
4149363,Bunnell,29.46609,-81.25784,US,FL
4149412,Burnt Store Marina,26.76507,-82.05092,US,FL
4149433,Bushnell,28.66499,-82.11286,US,FL
4149453,Butler Beach,29.7983,-81.26701,US,FL
4149631,Callahan,30.56218,-81.83066,US,FL
4149635,Callaway,30.15298,-85.56993,US,FL
4149845,Campbell,28.2589,-81.45646,US,FL
4149956,Cantonment,30.60853,-87.33998,US,FL
4149959,Cape Canaveral,28.40584,-80.60477,US,FL
4149962,Cape Coral,26.56285,-81.94953,US,FL
4150010,Captiva,26.52202,-82.18926,US,FL
4150066,Carol City,25.94065,-80.2456,US,FL
4150103,Carrabelle,29.85326,-84.66435,US,FL
4150115,Carrollwood,28.05002,-82.49287,US,FL
4150118,Carrollwood Village,28.06752,-82.52093,US,FL
4150159,Carver Ranches,25.98842,-80.19227,US,FL
4150190,Casselberry,28.67778,-81.32785,US,FL
4150340,Cedar Grove,30.17103,-85.6252,US,FL
4150356,Cedar Key,29.13858,-83.03512,US,FL
4150394,Celebration,28.32529,-81.53313,US,FL
4150411,Center Hill,28.64999,-81.99258,US,FL
4150517,Century,30.97324,-87.26386,US,FL
4150632,Charlotte Harbor,26.95839,-82.06703,US,FL
4150637,Charlotte Park,26.91006,-82.05398,US,FL
4150673,Chattahoochee,30.70546,-84.84574,US,FL
4150727,Cheval,28.14862,-82.51454,US,FL
4150733,Chiefland,29.47496,-82.85984,US,FL
4150769,Chipley,30.78186,-85.53854,US,FL
4150880,Christmas,28.53639,-81.01756,US,FL
4150904,Chumuckla,30.77658,-87.23719,US,FL
4150914,Chuluota,28.64194,-81.1234,US,FL
4151132,Citra,29.41192,-82.10982,US,FL
4151153,Citrus Hills,28.88831,-82.4326,US,FL
4151157,Citrus Park,28.07835,-82.56982,US,FL
4151162,Citrus Ridge,28.33385,-81.64232,US,FL
4151163,Citrus Springs,28.99748,-82.47065,US,FL
4151207,Clarcona,28.61278,-81.49868,US,FL
4151316,Clearwater,27.96585,-82.8001,US,FL
4151352,Clermont,28.54944,-81.77285,US,FL
4151366,Clewiston,26.75423,-80.93368,US,FL
4151416,Cleveland,26.96173,-81.98398,US,FL
4151440,Cocoa,28.38612,-80.742,US,FL
4151441,Cocoa Beach,28.32055,-80.60922,US,FL
4151455,Coconut Creek,26.25175,-80.17894,US,FL
4151460,Coconut Grove,25.7126,-80.25699,US,FL
4151509,Coleman,28.79971,-82.07009,US,FL
4151607,Combee Settlement,28.05835,-81.90536,US,FL
4151745,Conway,28.50278,-81.33062,US,FL
4151824,Cooper City,26.05731,-80.27172,US,FL
4151871,Coral Gables,25.72149,-80.26838,US,FL
4151909,Coral Springs,26.27119,-80.2706,US,FL
4151921,Coral Terrace,25.74593,-80.3045,US,FL
4152003,Cortez,27.46921,-82.68621,US,FL
4152043,Cottondale,30.79714,-85.3766,US,FL
4152064,Country Walk,25.63399,-80.43228,US,FL
